{"type":"FeatureCollection","features":[{"type":"Feature","id":1,"geometry":{"type":"Point","coordinates":[100.516569343572,13.739377261511]},"properties":{"OBJECTID":1,"id":1,"code":1001,"name":"กรุงเทพ","name_en":"Bangkok","short_name_th":"กท.","name_zh":"曼谷","short_name_en":"BKK","control_division":14,"exact_km":0,"exact_distance":0,"telegraph_km":0,"class":11}},{"type":"Feature","id":2,"geometry":{"type":"Point","coordinates":[100.521284427863,13.7581714518175]},"properties":{"OBJECTID":2,"id":2,"code":1002,"name":"ยมราช","name_en":"Yommaraj","short_name_th":"ยช.","name_zh":"勇马拉","short_name_en":"YMR","control_division":14,"exact_km":2,"exact_distance":2,"telegraph_km":2,"class":99}},{"type":"Feature","id":3,"geometry":{"type":"Point","coordinates":[100.52977012534,13.7790890016666]},"properties":{"OBJECTID":3,"id":3,"code":1004,"name":"สามเสน","name_en":"Sam Sen","short_name_th":"สส.","name_zh":"三森","short_name_en":"SAM","control_division":14,"exact_km":5,"exact_distance":4,"telegraph_km":4,"class":1}},{"type":"Feature","id":4,"geometry":{"type":"Point","coordinates":[100.5354019174,13.7929373777941]},"properties":{"OBJECTID":4,"id":4,"code":1006,"name":"ประดิพัทธ์","name_en":"Pra Dipat","short_name_th":"ปอิ.","name_zh":"帕涤潘","short_name_en":"PDP","control_division":14,"exact_km":6,"exact_distance":6,"telegraph_km":6,"class":99}},{"type":"Feature","id":5,"geometry":{"type":"Point","coordinates":[100.540132888546,13.8042737333701]},"properties":{"OBJECTID":5,"id":5,"code":1007,"name":"ชุมทางบางซื่อ","name_en":"Bang Sue Junction","short_name_th":"บซ.","name_zh":"邦苏总站","short_name_en":"BSJ","control_division":14,"exact_km":7,"exact_distance":7,"telegraph_km":7,"class":1}},{"type":"Feature","id":6,"geometry":{"type":"Point","coordinates":[100.548528265958,13.8244500859889]},"properties":{"OBJECTID":6,"id":6,"code":1009,"name":"นิคมรถไฟ กม.11","name_en":"Nikhom Rotphai Khomo Sip-et","short_name_th":"รถ.","name_zh":"NULL","short_name_en":"NKR","control_division":14,"exact_km":10,"exact_distance":10,"telegraph_km":10,"class":99}},{"type":"Feature","id":7,"geometry":{"type":"Point","coordinates":[100.56063700465,13.8469377497973]},"properties":{"OBJECTID":7,"id":7,"code":1011,"name":"บางเขน","name_en":"Bang Khen","short_name_th":"บข.","name_zh":"邦肯","short_name_en":"BKH","control_division":14,"exact_km":13,"exact_distance":13,"telegraph_km":13,"class":1}},{"type":"Feature","id":8,"geometry":{"type":"Point","coordinates":[100.567678933991,13.8600721410168]},"properties":{"OBJECTID":8,"id":8,"code":1013,"name":"ทุ่งสองห้อง","name_en":"Thung Song Hong","short_name_th":"หส.","name_zh":"吞松宏","short_name_en":"TSH","control_division":14,"exact_km":15,"exact_distance":14,"telegraph_km":14,"class":98}},{"type":"Feature","id":9,"geometry":{"type":"Point","coordinates":[100.580673501077,13.8836826940156]},"properties":{"OBJECTID":9,"id":9,"code":1015,"name":"หลักสี่","name_en":"Lak Si","short_name_th":"ลส.","name_zh":"拉四","short_name_en":"LKS","control_division":14,"exact_km":18,"exact_distance":17,"telegraph_km":17,"class":1}},{"type":"Feature","id":10,"geometry":{"type":"Point","coordinates":[100.597937656387,13.9143952379495]},"properties":{"OBJECTID":10,"id":10,"code":1016,"name":"ตลาดใหม่ดอนเมือง","name_en":"Talatmai Don Muang","short_name_th":"ตใ.","name_zh":"达拉麦廊曼","short_name_en":"TDM","control_division":14,"exact_km":22,"exact_distance":21,"telegraph_km":21,"class":99}},{"type":"Feature","id":11,"geometry":{"type":"Point","coordinates":[100.58075076769,13.8838208830366]},"properties":{"OBJECTID":11,"id":11,"code":1017,"name":"ดอนเมือง","name_en":"Don Muang","short_name_th":"ดม.","name_zh":"廊曼","short_name_en":"DMU","control_division":14,"exact_km":22,"exact_distance":22,"telegraph_km":22,"class":1}},{"type":"Feature","id":12,"geometry":{"type":"Point","coordinates":[100.605194144009,13.9658235351073]},"properties":{"OBJECTID":12,"id":12,"code":1019,"name":"หลักหก","name_en":"Lak Hok","short_name_th":"หอั.","name_zh":"拉侯","short_name_en":"LHK","control_division":14,"exact_km":28,"exact_distance":27,"telegraph_km":27,"class":99}},{"type":"Feature","id":13,"geometry":{"type":"Point","coordinates":[100.604032570152,13.9749183323554]},"properties":{"OBJECTID":13,"id":13,"code":1020,"name":"คลองรังสิต","name_en":"Khlong Rangsit","short_name_th":"คส.","name_zh":"空兰实","short_name_en":"KRS","control_division":14,"exact_km":28,"exact_distance":28,"telegraph_km":28,"class":98}},{"type":"Feature","id":14,"geometry":{"type":"Point","coordinates":[100.602301266783,13.9897088509856]},"properties":{"OBJECTID":14,"id":14,"code":1021,"name":"รังสิต","name_en":"Rangsit","short_name_th":"รต.","name_zh":"兰实","short_name_en":"RSI","control_division":14,"exact_km":30,"exact_distance":29,"telegraph_km":29,"class":2}},{"type":"Feature","id":15,"geometry":{"type":"Point","coordinates":[100.592273315561,14.0560276450606]},"properties":{"OBJECTID":15,"id":15,"code":1022,"name":"เชียงราก","name_en":"Chiang Rak","short_name_th":"ชร.","name_zh":"清郎","short_name_en":"CHR","control_division":11,"exact_km":37,"exact_distance":37,"telegraph_km":37,"class":3}},{"type":"Feature","id":16,"geometry":{"type":"Point","coordinates":[100.584027787658,14.11464893821]},"properties":{"OBJECTID":16,"id":16,"code":1023,"name":"นวนคร","name_en":"Nava Nakhon","short_name_th":"วะ.","name_zh":"那哇纳空","short_name_en":"NVN","control_division":11,"exact_km":44,"exact_distance":44,"telegraph_km":44,"class":98}},{"type":"Feature","id":17,"geometry":{"type":"Point","coordinates":[100.582036208262,14.131560639914]},"properties":{"OBJECTID":17,"id":17,"code":1024,"name":"เชียงรากน้อย","name_en":"Chiang Rak Noi","short_name_th":"ชน.","name_zh":"清郎纳","short_name_en":"CRN","control_division":11,"exact_km":46,"exact_distance":46,"telegraph_km":46,"class":2}},{"type":"Feature","id":18,"geometry":{"type":"Point","coordinates":[100.578240170132,14.1858484341951]},"properties":{"OBJECTID":18,"id":18,"code":1026,"name":"คลองพุทรา","name_en":"Khlong Phutsa","short_name_th":"พซ.","name_zh":"空普沙","short_name_en":"KPS","control_division":11,"exact_km":52,"exact_distance":51,"telegraph_km":51,"class":3}},{"type":"Feature","id":19,"geometry":{"type":"Point","coordinates":[100.584681277658,14.2394896112919]},"properties":{"OBJECTID":19,"id":19,"code":1028,"name":"บางปะอิน","name_en":"Bang Pa-in","short_name_th":"บอ.","name_zh":"邦芭茵","short_name_en":"BPI","control_division":11,"exact_km":58,"exact_distance":58,"telegraph_km":58,"class":2}},{"type":"Feature","id":20,"geometry":{"type":"Point","coordinates":[100.588699781954,14.2821922170976]},"properties":{"OBJECTID":20,"id":20,"code":1029,"name":"บ้านโพ","name_en":"Ban Pho","short_name_th":"บพ.","name_zh":"班泼","short_name_en":"BPH","control_division":11,"exact_km":63,"exact_distance":62,"telegraph_km":62,"class":3}},{"type":"Feature","id":21,"geometry":{"type":"Point","coordinates":[100.583271850233,14.3565690755388]},"properties":{"OBJECTID":21,"id":21,"code":1031,"name":"อยุธยา","name_en":"Ayutthaya","short_name_th":"อย.","name_zh":"大城府","short_name_en":"AYY","control_division":11,"exact_km":71,"exact_distance":71,"telegraph_km":71,"class":1}},{"type":"Feature","id":22,"geometry":{"type":"Point","coordinates":[100.597141909292,14.3840312254673]},"properties":{"OBJECTID":22,"id":22,"code":1032,"name":"บ้านม้า","name_en":"Ban Ma","short_name_th":"มา.","name_zh":"班马","short_name_en":"BAA","control_division":11,"exact_km":75,"exact_distance":74,"telegraph_km":74,"class":3}},{"type":"Feature","id":23,"geometry":{"type":"Point","coordinates":[100.632156884177,14.4023623663543]},"properties":{"OBJECTID":23,"id":23,"code":1033,"name":"มาบพระจันทร์","name_en":"Map Phra Chan","short_name_th":"บจ.","name_zh":"玛帕占","short_name_en":"MPC","control_division":11,"exact_km":79,"exact_distance":78,"telegraph_km":78,"class":3}},{"type":"Feature","id":24,"geometry":{"type":"Point","coordinates":[100.658616756158,14.4153309472548]},"properties":{"OBJECTID":24,"id":24,"code":1034,"name":"บ้านดอนกลาง","name_en":"Ban Don Klang","short_name_th":"ลก.","name_zh":"班东岗","short_name_en":"BDK","control_division":11,"exact_km":82,"exact_distance":82,"telegraph_km":82,"class":99}},{"type":"Feature","id":25,"geometry":{"type":"Point","coordinates":[100.685573519006,14.4287838657251]},"properties":{"OBJECTID":25,"id":25,"code":1035,"name":"พระแก้ว","name_en":"Phra Kaeo","short_name_th":"พก.","name_zh":"帕堪","short_name_en":"PHK","control_division":11,"exact_km":85,"exact_distance":85,"telegraph_km":85,"class":3}},{"type":"Feature","id":26,"geometry":{"type":"Point","coordinates":[100.720669010348,14.4507270372381]},"properties":{"OBJECTID":26,"id":26,"code":1036,"name":"ชุมทางบ้านภาชี","name_en":"Ban Phachi Junction","short_name_th":"ภช.","name_zh":"班帕琪总站","short_name_en":"BPJ","control_division":11,"exact_km":90,"exact_distance":89,"telegraph_km":89,"class":1}},{"type":"Feature","id":27,"geometry":{"type":"Point","coordinates":[100.727242081174,14.5052648872645]},"properties":{"OBJECTID":27,"id":27,"code":1037,"name":"หนองวิวัฒน์","name_en":"Nong Wiwat","short_name_th":"วอิ.","name_zh":"农微瓦","short_name_en":"NGW","control_division":11,"exact_km":96,"exact_distance":96,"telegraph_km":96,"class":3}},{"type":"Feature","id":28,"geometry":{"type":"Point","coordinates":[100.726051164695,14.5301351615937]},"properties":{"OBJECTID":28,"id":28,"code":1038,"name":"บ้านปลักแรด","name_en":"Ban Plug Rad","short_name_th":"แด.","name_zh":"班芭腊","short_name_en":"BPR","control_division":11,"exact_km":99,"exact_distance":99,"telegraph_km":99,"class":98}},{"type":"Feature","id":29,"geometry":{"type":"Point","coordinates":[100.724473119908,14.5622678685049]},"properties":{"OBJECTID":29,"id":29,"code":1039,"name":"ท่าเรือ","name_en":"Tha Rua","short_name_th":"ทร.","name_zh":"他乐","short_name_en":"THR","control_division":11,"exact_km":103,"exact_distance":102,"telegraph_km":102,"class":2}},{"type":"Feature","id":30,"geometry":{"type":"Point","coordinates":[100.726368658474,14.6169958742629]},"properties":{"OBJECTID":30,"id":30,"code":1041,"name":"บ้านหมอ","name_en":"Ban Mo","short_name_th":"มอ.","name_zh":"班莫","short_name_en":"BMO","control_division":11,"exact_km":109,"exact_distance":108,"telegraph_km":108,"class":1}},{"type":"Feature","id":31,"geometry":{"type":"Point","coordinates":[100.706137132743,14.6833605607777]},"properties":{"OBJECTID":31,"id":31,"code":1045,"name":"หนองโดน","name_en":"Nong Don","short_name_th":"โด.","name_zh":"农东","short_name_en":"NDO","control_division":11,"exact_km":117,"exact_distance":116,"telegraph_km":116,"class":2}},{"type":"Feature","id":32,"geometry":{"type":"Point","coordinates":[100.678135819939,14.7208871681209]},"properties":{"OBJECTID":32,"id":32,"code":1047,"name":"บ้านกลับ","name_en":"Ban Klap","short_name_th":"บก.","name_zh":"班干","short_name_en":"BKP","control_division":11,"exact_km":122,"exact_distance":121,"telegraph_km":121,"class":3}},{"type":"Feature","id":33,"geometry":{"type":"Point","coordinates":[100.643266577912,14.7594194587036]},"properties":{"OBJECTID":33,"id":33,"code":1048,"name":"บ้านป่าหวาย","name_en":"Ban Pa Wai","short_name_th":"ปว.","name_zh":"班帕外","short_name_en":"BPW","control_division":11,"exact_km":127,"exact_distance":127,"telegraph_km":127,"class":3}},{"type":"Feature","id":34,"geometry":{"type":"Point","coordinates":[100.615423575145,14.7985444590813]},"properties":{"OBJECTID":34,"id":34,"code":1050,"name":"ลพบุรี","name_en":"Lop Buri","short_name_th":"ลบ.","name_zh":"華富里府","short_name_en":"LBR","control_division":11,"exact_km":133,"exact_distance":132,"telegraph_km":132,"class":1}},{"type":"Feature","id":35,"geometry":{"type":"Point","coordinates":[100.606361390409,14.8404306945326]},"properties":{"OBJECTID":35,"id":35,"code":1051,"name":"ท่าแค","name_en":"Tha Khae","short_name_th":"ทแ.","name_zh":"塔可","short_name_en":"THK","control_division":31,"exact_km":138,"exact_distance":137,"telegraph_km":137,"class":3}},{"type":"Feature","id":36,"geometry":{"type":"Point","coordinates":[100.593540419292,14.8998040497046]},"properties":{"OBJECTID":36,"id":36,"code":1053,"name":"โคกกะเทียม","name_en":"Khok Kathiam","short_name_th":"คท.","name_zh":"柯甘天","short_name_en":"KKT","control_division":31,"exact_km":144,"exact_distance":144,"telegraph_km":144,"class":3}},{"type":"Feature","id":37,"geometry":{"type":"Point","coordinates":[100.582405693324,14.95138667752]},"properties":{"OBJECTID":37,"id":37,"code":1055,"name":"หนองเต่า","name_en":"Nong Tao","short_name_th":"นต.","name_zh":"农涛","short_name_en":"NGT","control_division":31,"exact_km":150,"exact_distance":150,"telegraph_km":150,"class":3}},{"type":"Feature","id":38,"geometry":{"type":"Point","coordinates":[100.573149851617,14.9940822870047]},"properties":{"OBJECTID":38,"id":38,"code":1056,"name":"หนองทรายขาว","name_en":"Nong Sai Khao","short_name_th":"ซข.","name_zh":"农塞考","short_name_en":"NSK","control_division":31,"exact_km":155,"exact_distance":154,"telegraph_km":154,"class":3}},{"type":"Feature","id":39,"geometry":{"type":"Point","coordinates":[100.5406828438,15.0394599068112]},"properties":{"OBJECTID":39,"id":39,"code":1058,"name":"บ้านหมี่","name_en":"Ban Mi","short_name_th":"บม.","name_zh":"班米","short_name_en":"BAM","control_division":31,"exact_km":161,"exact_distance":161,"telegraph_km":161,"class":2}},{"type":"Feature","id":40,"geometry":{"type":"Point","coordinates":[100.510658881898,15.0702540224806]},"properties":{"OBJECTID":40,"id":40,"code":1059,"name":"ห้วยแก้ว","name_en":"Huai Kaeo","short_name_th":"หก.","name_zh":"辉堪","short_name_en":"HUK","control_division":31,"exact_km":166,"exact_distance":165,"telegraph_km":165,"class":3}},{"type":"Feature","id":41,"geometry":{"type":"Point","coordinates":[100.483064223384,15.0984976655022]},"properties":{"OBJECTID":41,"id":41,"code":1060,"name":"ไผ่ใหญ่","name_en":"Phai Yai","short_name_th":"ผญ.","name_zh":"派亚","short_name_en":"PYI","control_division":31,"exact_km":170,"exact_distance":170,"telegraph_km":170,"class":98}},{"type":"Feature","id":42,"geometry":{"type":"Point","coordinates":[100.45973422708,15.1223920418046]},"properties":{"OBJECTID":42,"id":42,"code":1061,"name":"จันเสน","name_en":"Chansen","short_name_th":"จส.","name_zh":"参森","short_name_en":"CHS","control_division":31,"exact_km":174,"exact_distance":173,"telegraph_km":173,"class":2}},{"type":"Feature","id":43,"geometry":{"type":"Point","coordinates":[100.442017192434,15.1415101617093]},"properties":{"OBJECTID":43,"id":43,"code":1062,"name":"บ้านกกกว้าว","name_en":"Ban Khok Kwaow","short_name_th":"วอ้.","name_zh":"班阁高","short_name_en":"BKW","control_division":31,"exact_km":177,"exact_distance":176,"telegraph_km":176,"class":99}},{"type":"Feature","id":44,"geometry":{"type":"Point","coordinates":[100.420509008692,15.1649389306378]},"properties":{"OBJECTID":44,"id":44,"code":1063,"name":"ช่องแค","name_en":"Chong Khae","short_name_th":"ชค.","name_zh":"昌珂","short_name_en":"CHK","control_division":31,"exact_km":180,"exact_distance":180,"telegraph_km":180,"class":2}},{"type":"Feature","id":45,"geometry":{"type":"Point","coordinates":[100.374661177845,15.212233794772]},"properties":{"OBJECTID":45,"id":45,"code":1065,"name":"ทะเลหว้า","name_en":"Thale Wa","short_name_th":"ทห.","name_zh":"塔乐哇","short_name_en":"TWA","control_division":31,"exact_km":187,"exact_distance":187,"telegraph_km":187,"class":98}},{"type":"Feature","id":46,"geometry":{"type":"Point","coordinates":[100.366566941576,15.220543640771]},"properties":{"OBJECTID":46,"id":46,"code":1066,"name":"โพนทอง","name_en":"Phon Thong","short_name_th":"โพ.","name_zh":"泼通","short_name_en":"POT","control_division":31,"exact_km":189,"exact_distance":188,"telegraph_km":188,"class":2}},{"type":"Feature","id":47,"geometry":{"type":"Point","coordinates":[100.350233203635,15.2562889659113]},"properties":{"OBJECTID":47,"id":47,"code":1067,"name":"บ้านตาคลี","name_en":"Ban Takhli","short_name_th":"ตล.","name_zh":"班达丽","short_name_en":"BTK","control_division":31,"exact_km":193,"exact_distance":193,"telegraph_km":193,"class":2}},{"type":"Feature","id":48,"geometry":{"type":"Point","coordinates":[100.3314670822,15.3053680807482]},"properties":{"OBJECTID":48,"id":48,"code":1069,"name":"ดงมะกุ","name_en":"Dong Maku","short_name_th":"ดง.","name_zh":"东玛库","short_name_en":"DMK","control_division":31,"exact_km":199,"exact_distance":198,"telegraph_km":198,"class":3}},{"type":"Feature","id":49,"geometry":{"type":"Point","coordinates":[100.312898871354,15.3490185463313]},"properties":{"OBJECTID":49,"id":49,"code":1070,"name":"หัวหวาย","name_en":"Hua Wai","short_name_th":"หว.","name_zh":"华威","short_name_en":"HUW","control_division":31,"exact_km":204,"exact_distance":204,"telegraph_km":204,"class":3}},{"type":"Feature","id":50,"geometry":{"type":"Point","coordinates":[100.259210810676,15.3938467261737]},"properties":{"OBJECTID":50,"id":50,"code":1072,"name":"หนองโพ","name_en":"Nong Pho","short_name_th":"นพ.","name_zh":"农泼","short_name_en":"NGP","control_division":31,"exact_km":211,"exact_distance":211,"telegraph_km":211,"class":3}},{"type":"Feature","id":51,"geometry":{"type":"Point","coordinates":[100.219519119228,15.4269719795263]},"properties":{"OBJECTID":51,"id":51,"code":1074,"name":"หัวงิ้ว","name_en":"Hua Ngiu","short_name_th":"หง.","name_zh":"华柳","short_name_en":"HNG","control_division":31,"exact_km":217,"exact_distance":217,"telegraph_km":217,"class":3}},{"type":"Feature","id":52,"geometry":{"type":"Point","coordinates":[100.173147763706,15.4756996820035]},"properties":{"OBJECTID":52,"id":52,"code":1076,"name":"เนินมะกอก","name_en":"Noen Makok","short_name_th":"มก.","name_zh":"嫩玛功","short_name_en":"NMA","control_division":31,"exact_km":225,"exact_distance":224,"telegraph_km":224,"class":3}},{"type":"Feature","id":53,"geometry":{"type":"Point","coordinates":[100.176319397857,15.5721296860948]},"properties":{"OBJECTID":53,"id":53,"code":1079,"name":"เขาทอง","name_en":"Khao Thong","short_name_th":"ขท.","name_zh":"考通","short_name_en":"KTH","control_division":31,"exact_km":235,"exact_distance":235,"telegraph_km":235,"class":3}},{"type":"Feature","id":54,"geometry":{"type":"Point","coordinates":[100.158558399303,15.6631517167392]},"properties":{"OBJECTID":54,"id":54,"code":1082,"name":"นครสวรรค์","name_en":"Nakhon Sawan","short_name_th":"นว.","name_zh":"北欖坡府","short_name_en":"NKS","control_division":31,"exact_km":246,"exact_distance":245,"telegraph_km":245,"class":1}},{"type":"Feature","id":55,"geometry":{"type":"Point","coordinates":[100.154068268344,15.7040666492116]},"properties":{"OBJECTID":55,"id":55,"code":1083,"name":"ปากน้ำโพ","name_en":"Pak Nam Pho","short_name_th":"ปพ.","name_zh":"北榄坡","short_name_en":"PNP","control_division":31,"exact_km":251,"exact_distance":250,"telegraph_km":250,"class":1}},{"type":"Feature","id":56,"geometry":{"type":"Point","coordinates":[100.257609863485,15.7548981109784]},"properties":{"OBJECTID":56,"id":56,"code":1084,"name":"ทับกฤช","name_en":"Thap Krit","short_name_th":"ทก.","name_zh":"塔阁","short_name_en":"TKT","control_division":31,"exact_km":264,"exact_distance":263,"telegraph_km":263,"class":2}},{"type":"Feature","id":57,"geometry":{"type":"Point","coordinates":[100.283409073973,15.8148662133194]},"properties":{"OBJECTID":57,"id":57,"code":1086,"name":"คลองปลากด","name_en":"Khlong Pla Kot","short_name_th":"ปก.","name_zh":"空帕功","short_name_en":"KPK","control_division":31,"exact_km":271,"exact_distance":270,"telegraph_km":270,"class":3}},{"type":"Feature","id":58,"geometry":{"type":"Point","coordinates":[100.310094982077,15.8945715253927]},"properties":{"OBJECTID":58,"id":58,"code":1088,"name":"ชุมแสง","name_en":"Chumsaeng","short_name_th":"ชส.","name_zh":"春盛","short_name_en":"CMS","control_division":31,"exact_km":280,"exact_distance":280,"telegraph_km":280,"class":2}},{"type":"Feature","id":59,"geometry":{"type":"Point","coordinates":[100.347764788294,15.9767799553129]},"properties":{"OBJECTID":59,"id":59,"code":1091,"name":"วังกร่าง","name_en":"Wang Krang","short_name_th":"กา.","name_zh":"旺岗","short_name_en":"WAK","control_division":32,"exact_km":290,"exact_distance":290,"telegraph_km":290,"class":3}},{"type":"Feature","id":60,"geometry":{"type":"Point","coordinates":[100.381189860959,16.0285217608186]},"properties":{"OBJECTID":60,"id":60,"code":1093,"name":"บางมูลนาก","name_en":"Bang Mun Nak","short_name_th":"นา.","name_zh":"邦莫那","short_name_en":"BMN","control_division":32,"exact_km":297,"exact_distance":297,"telegraph_km":297,"class":1}},{"type":"Feature","id":61,"geometry":{"type":"Point","coordinates":[100.405694255048,16.0819948371842]},"properties":{"OBJECTID":61,"id":61,"code":1095,"name":"หอไกร","name_en":"Ho Krai","short_name_th":"ไก.","name_zh":"宏开","short_name_en":"HOK","control_division":32,"exact_km":304,"exact_distance":303,"telegraph_km":303,"class":3}},{"type":"Feature","id":62,"geometry":{"type":"Point","coordinates":[100.414828972371,16.138636185245]},"properties":{"OBJECTID":62,"id":62,"code":1097,"name":"ดงตะขบ","name_en":"Dong Takhop","short_name_th":"ดข.","name_zh":"董达空","short_name_en":"DTK","control_division":32,"exact_km":310,"exact_distance":309,"telegraph_km":309,"class":3}},{"type":"Feature","id":63,"geometry":{"type":"Point","coordinates":[100.424110840541,16.2208221877168]},"properties":{"OBJECTID":63,"id":63,"code":1099,"name":"ตะพานหิน","name_en":"Taphan Hin","short_name_th":"ตห.","name_zh":"塔潘欣","short_name_en":"TPH","control_division":32,"exact_km":319,"exact_distance":319,"telegraph_km":319,"class":1}},{"type":"Feature","id":64,"geometry":{"type":"Point","coordinates":[100.425395723783,16.273291806041]},"properties":{"OBJECTID":64,"id":64,"code":1101,"name":"ห้วยเกตุ","name_en":"Huai Ket","short_name_th":"ยต.","name_zh":"汇阁","short_name_en":"HKE","control_division":32,"exact_km":325,"exact_distance":324,"telegraph_km":324,"class":3}},{"type":"Feature","id":65,"geometry":{"type":"Point","coordinates":[100.403116862058,16.3393079903083]},"properties":{"OBJECTID":65,"id":65,"code":1103,"name":"หัวดง","name_en":"Hua Dong","short_name_th":"หด.","name_zh":"华董","short_name_en":"HUD","control_division":32,"exact_km":333,"exact_distance":332,"telegraph_km":332,"class":2}},{"type":"Feature","id":66,"geometry":{"type":"Point","coordinates":[100.389540642535,16.3988821788895]},"properties":{"OBJECTID":66,"id":66,"code":1105,"name":"วังกรด","name_en":"Wang Krot","short_name_th":"วร.","name_zh":"旺功","short_name_en":"WKT","control_division":32,"exact_km":339,"exact_distance":339,"telegraph_km":339,"class":2}},{"type":"Feature","id":67,"geometry":{"type":"Point","coordinates":[100.34656069968,16.4478725494912]},"properties":{"OBJECTID":67,"id":67,"code":1107,"name":"พิจิตร","name_en":"Phichit","short_name_th":"พจ.","name_zh":"披集府","short_name_en":"PIC","control_division":32,"exact_km":347,"exact_distance":346,"telegraph_km":346,"class":1}},{"type":"Feature","id":68,"geometry":{"type":"Point","coordinates":[100.330095177151,16.5121361494771]},"properties":{"OBJECTID":68,"id":68,"code":1109,"name":"ท่าฬ่อ","name_en":"Tha Lo","short_name_th":"ทฬ.","name_zh":"塔罗","short_name_en":"THL","control_division":32,"exact_km":354,"exact_distance":354,"telegraph_km":354,"class":3}},{"type":"Feature","id":69,"geometry":{"type":"Point","coordinates":[100.299012363963,16.5766711222603]},"properties":{"OBJECTID":69,"id":69,"code":1111,"name":"บางกระทุ่ม","name_en":"Bang Krathum","short_name_th":"ทม.","name_zh":"邦卡吞","short_name_en":"BKT","control_division":32,"exact_km":362,"exact_distance":362,"telegraph_km":362,"class":2}},{"type":"Feature","id":70,"geometry":{"type":"Point","coordinates":[100.284184260786,16.6097634319343]},"properties":{"OBJECTID":70,"id":70,"code":1112,"name":"แม่เทียบ","name_en":"Mae Thiap","short_name_th":"แท.","name_zh":"湄天","short_name_en":"MAT","control_division":32,"exact_km":366,"exact_distance":366,"telegraph_km":366,"class":3}},{"type":"Feature","id":71,"geometry":{"type":"Point","coordinates":[100.272898697149,16.6901973028155]},"properties":{"OBJECTID":71,"id":71,"code":1114,"name":"บ้านใหม่","name_en":"Ban Mai","short_name_th":"บห.","name_zh":"班迈","short_name_en":"BMA","control_division":32,"exact_km":375,"exact_distance":375,"telegraph_km":375,"class":3}},{"type":"Feature","id":72,"geometry":{"type":"Point","coordinates":[100.264129894426,16.7481285685334]},"properties":{"OBJECTID":72,"id":72,"code":1116,"name":"บึงพระ","name_en":"Bung Phra","short_name_th":"บะ.","name_zh":"蹦帕","short_name_en":"BUP","control_division":32,"exact_km":382,"exact_distance":381,"telegraph_km":381,"class":1}},{"type":"Feature","id":73,"geometry":{"type":"Point","coordinates":[100.265614864429,16.8151548916179]},"properties":{"OBJECTID":73,"id":73,"code":1118,"name":"พิษณุโลก","name_en":"Phitsanulok","short_name_th":"พล.","name_zh":"彭世洛府","short_name_en":"PSL","control_division":32,"exact_km":389,"exact_distance":389,"telegraph_km":389,"class":1}},{"type":"Feature","id":74,"geometry":{"type":"Point","coordinates":[100.266614297688,16.8554608069755]},"properties":{"OBJECTID":74,"id":74,"code":1119,"name":"บ้านเต็งหนาม","name_en":"Ban Teng Nam","short_name_th":"เห.","name_zh":"班登南","short_name_en":"BTN","control_division":32,"exact_km":394,"exact_distance":393,"telegraph_km":393,"class":4}},{"type":"Feature","id":75,"geometry":{"type":"Point","coordinates":[100.250421107359,16.9090245072871]},"properties":{"OBJECTID":75,"id":75,"code":1121,"name":"บ้านตูม","name_en":"Ban Tum","short_name_th":"ตม.","name_zh":"班吞","short_name_en":"BTU","control_division":32,"exact_km":400,"exact_distance":400,"telegraph_km":400,"class":4}},{"type":"Feature","id":76,"geometry":{"type":"Point","coordinates":[100.232346898738,16.9536063100523]},"properties":{"OBJECTID":76,"id":76,"code":1122,"name":"แควน้อย","name_en":"Khwae Noi","short_name_th":"คน.","name_zh":"考纳","short_name_en":"KWN","control_division":32,"exact_km":405,"exact_distance":405,"telegraph_km":405,"class":4}},{"type":"Feature","id":77,"geometry":{"type":"Point","coordinates":[100.201107610211,17.0311296402729]},"properties":{"OBJECTID":77,"id":77,"code":1125,"name":"พรหมพิราม","name_en":"Phrom Phiram","short_name_th":"พห.","name_zh":"彭披拉","short_name_en":"PPR","control_division":32,"exact_km":415,"exact_distance":414,"telegraph_km":414,"class":2}},{"type":"Feature","id":78,"geometry":{"type":"Point","coordinates":[100.163443744756,17.1001602073068]},"properties":{"OBJECTID":78,"id":78,"code":1127,"name":"หนองตม","name_en":"Nong Tom","short_name_th":"หต.","name_zh":"农冬","short_name_en":"NOO","control_division":32,"exact_km":423,"exact_distance":423,"telegraph_km":423,"class":3}},{"type":"Feature","id":79,"geometry":{"type":"Point","coordinates":[100.109495818975,17.1690925260879]},"properties":{"OBJECTID":79,"id":79,"code":1130,"name":"บ้านบุ่ง","name_en":"Ban Bung","short_name_th":"บง.","name_zh":"班布","short_name_en":"BBU","control_division":32,"exact_km":433,"exact_distance":432,"telegraph_km":432,"class":4}},{"type":"Feature","id":80,"geometry":{"type":"Point","coordinates":[100.079242342305,17.1994947515124]},"properties":{"OBJECTID":80,"id":80,"code":1131,"name":"บ้านโคน","name_en":"Ban Khon","short_name_th":"บค.","name_zh":"班孔","short_name_en":"BKN","control_division":32,"exact_km":437,"exact_distance":437,"telegraph_km":437,"class":4}},{"type":"Feature","id":81,"geometry":{"type":"Point","coordinates":[100.088281462506,17.2889487038131]},"properties":{"OBJECTID":81,"id":81,"code":1134,"name":"พิชัย","name_en":"Phichai","short_name_th":"พย.","name_zh":"批猜","short_name_en":"PCH","control_division":32,"exact_km":448,"exact_distance":447,"telegraph_km":447,"class":2}},{"type":"Feature","id":82,"geometry":{"type":"Point","coordinates":[100.078060126175,17.3463772793841]},"properties":{"OBJECTID":82,"id":82,"code":1136,"name":"ไร่อ้อย","name_en":"Rai Oi","short_name_th":"รอ.","name_zh":"来奥","short_name_en":"ROI","control_division":32,"exact_km":454,"exact_distance":453,"telegraph_km":453,"class":4}},{"type":"Feature","id":83,"geometry":{"type":"Point","coordinates":[100.082937460887,17.3833278245785]},"properties":{"OBJECTID":83,"id":83,"code":1137,"name":"ชุมทางบ้านดารา","name_en":"Ban Dara Junction","short_name_th":"ดร.","name_zh":"班达拉总站","short_name_en":"BDJ","control_division":32,"exact_km":458,"exact_distance":458,"telegraph_km":458,"class":3}},{"type":"Feature","id":84,"geometry":{"type":"Point","coordinates":[100.017468276726,17.3546009757774]},"properties":{"OBJECTID":84,"id":84,"code":1138,"name":"คลองละมุง","name_en":"Khlong Lamung","short_name_th":"ลม.","name_zh":"空拉孟","short_name_en":"KLM","control_division":32,"exact_km":466,"exact_distance":466,"telegraph_km":466,"class":98}},{"type":"Feature","id":85,"geometry":{"type":"Point","coordinates":[99.9833257484347,17.3473745177703]},"properties":{"OBJECTID":85,"id":85,"code":1139,"name":"คลองมะพลับ","name_en":"Khlong Maphlap","short_name_th":"มป.","name_zh":"空玛帕","short_name_en":"KML","control_division":32,"exact_km":470,"exact_distance":470,"telegraph_km":470,"class":4}},{"type":"Feature","id":86,"geometry":{"type":"Point","coordinates":[99.9398359850204,17.338666723736]},"properties":{"OBJECTID":86,"id":86,"code":1140,"name":"วัดคลองปู","name_en":"Wat Khlong Pu","short_name_th":"วอู.","name_zh":"瓦空部","short_name_en":"WPU","control_division":32,"exact_km":475,"exact_distance":474,"telegraph_km":474,"class":98}},{"type":"Feature","id":87,"geometry":{"type":"Point","coordinates":[99.9029877660174,17.3350135117034]},"properties":{"OBJECTID":87,"id":87,"code":1141,"name":"คลองยาง","name_en":"Khlong Yang","short_name_th":"คย.","name_zh":"空扬","short_name_en":"KHY","control_division":32,"exact_km":479,"exact_distance":479,"telegraph_km":479,"class":98}},{"type":"Feature","id":88,"geometry":{"type":"Point","coordinates":[99.8639406549609,17.3291874996034]},"properties":{"OBJECTID":88,"id":88,"code":1142,"name":"หนองเรียง","name_en":"Nong Riang","short_name_th":"นย.","name_zh":"农莲","short_name_en":"NOR","control_division":32,"exact_km":483,"exact_distance":483,"telegraph_km":483,"class":98}},{"type":"Feature","id":89,"geometry":{"type":"Point","coordinates":[99.8323646247498,17.3145627677902]},"properties":{"OBJECTID":89,"id":89,"code":1143,"name":"สวรรคโลก","name_en":"Sawankhalok","short_name_th":"สว.","name_zh":"宋加洛","short_name_en":"SWL","control_division":32,"exact_km":487,"exact_distance":487,"telegraph_km":487,"class":1}},{"type":"Feature","id":90,"geometry":{"type":"Point","coordinates":[100.097531360408,17.4112784852639]},"properties":{"OBJECTID":90,"id":90,"code":1144,"name":"ท่าสัก","name_en":"Tha Sak","short_name_th":"าส.","name_zh":"塔沙","short_name_en":"THS","control_division":32,"exact_km":462,"exact_distance":461,"telegraph_km":461,"class":2}},{"type":"Feature","id":91,"geometry":{"type":"Point","coordinates":[100.109415071643,17.4832583109101]},"properties":{"OBJECTID":91,"id":91,"code":1146,"name":"ตรอน","name_en":"Tron","short_name_th":"ตอ.","name_zh":"德伦","short_name_en":"TON","control_division":32,"exact_km":470,"exact_distance":469,"telegraph_km":469,"class":2}},{"type":"Feature","id":92,"geometry":{"type":"Point","coordinates":[100.100220595836,17.5445115482705]},"properties":{"OBJECTID":92,"id":92,"code":1148,"name":"วังกะพี้","name_en":"Wang Kaphi","short_name_th":"วก.","name_zh":"王卡披","short_name_en":"WKP","control_division":32,"exact_km":477,"exact_distance":476,"telegraph_km":476,"class":3}},{"type":"Feature","id":93,"geometry":{"type":"Point","coordinates":[100.09735756864,17.6203812608421]},"properties":{"OBJECTID":93,"id":93,"code":1150,"name":"อุตรดิตถ์","name_en":"Uttaradit","short_name_th":"อด.","name_zh":"程逸府","short_name_en":"UTD","control_division":32,"exact_km":485,"exact_distance":485,"telegraph_km":485,"class":1}},{"type":"Feature","id":94,"geometry":{"type":"Point","coordinates":[100.101081195288,17.6392319700361]},"properties":{"OBJECTID":94,"id":94,"code":1151,"name":"ศิลาอาสน์","name_en":"Sila At","short_name_th":"ศล.","name_zh":"斯拉安","short_name_en":"SLA","control_division":32,"exact_km":488,"exact_distance":487,"telegraph_km":487,"class":1}},{"type":"Feature","id":95,"geometry":{"type":"Point","coordinates":[100.118933758839,17.6464595816822]},"properties":{"OBJECTID":95,"id":95,"code":1152,"name":"ท่าเสา","name_en":"Tha Sao","short_name_th":"เส.","name_zh":"塔绍","short_name_en":"THO","control_division":33,"exact_km":489,"exact_distance":489,"telegraph_km":489,"class":98}},{"type":"Feature","id":96,"geometry":{"type":"Point","coordinates":[100.127859680411,17.7184292492184]},"properties":{"OBJECTID":96,"id":96,"code":1154,"name":"บ้านด่าน","name_en":"Ban Dan","short_name_th":"บด.","name_zh":"班丹","short_name_en":"BDA","control_division":33,"exact_km":498,"exact_distance":497,"telegraph_km":497,"class":3}},{"type":"Feature","id":97,"geometry":{"type":"Point","coordinates":[100.076296235042,17.7998517426791]},"properties":{"OBJECTID":97,"id":97,"code":1157,"name":"ปางต้นผึ้ง","name_en":"Pang Ton Phung","short_name_th":"ปต.","name_zh":"邦同彭","short_name_en":"PTP","control_division":33,"exact_km":509,"exact_distance":509,"telegraph_km":509,"class":3}},{"type":"Feature","id":98,"geometry":{"type":"Point","coordinates":[100.043284633442,17.8506692147147]},"properties":{"OBJECTID":98,"id":98,"code":1159,"name":"เขาพลึง","name_en":"Khao Phlung","short_name_th":"ขง.","name_zh":"考帕楞","short_name_en":"KHP","control_division":33,"exact_km":517,"exact_distance":517,"telegraph_km":517,"class":98}},{"type":"Feature","id":99,"geometry":{"type":"Point","coordinates":[100.040471895631,17.8860234650482]},"properties":{"OBJECTID":99,"id":99,"code":1160,"name":"ห้วยไร่","name_en":"Huai Rai","short_name_th":"หา.","name_zh":"辉莱","short_name_en":"HUR","control_division":33,"exact_km":521,"exact_distance":521,"telegraph_km":521,"class":3}},{"type":"Feature","id":100,"geometry":{"type":"Point","coordinates":[100.063435804083,17.9143184285534]},"properties":{"OBJECTID":100,"id":100,"code":1161,"name":"ไร่เกล็ดดาว","name_en":"Rai Kled Dao","short_name_th":"รล.","name_zh":"莱庚稻","short_name_en":"RKD","control_division":33,"exact_km":0,"exact_distance":0,"telegraph_km":0,"class":98}},{"type":"Feature","id":101,"geometry":{"type":"Point","coordinates":[100.057668788047,17.935950241281]},"properties":{"OBJECTID":101,"id":101,"code":1162,"name":"แม่พวก","name_en":"Mae Phuak","short_name_th":"มพ.","name_zh":"湄坡","short_name_en":"MAP","control_division":33,"exact_km":528,"exact_distance":528,"telegraph_km":528,"class":98}},{"type":"Feature","id":102,"geometry":{"type":"Point","coordinates":[100.046062294867,17.9805888024008]},"properties":{"OBJECTID":102,"id":102,"code":1164,"name":"เด่นชัย","name_en":"Den Chai","short_name_th":"ดช.","name_zh":"登猜","short_name_en":"DCH","control_division":33,"exact_km":534,"exact_distance":533,"telegraph_km":533,"class":1}},{"type":"Feature","id":103,"geometry":{"type":"Point","coordinates":[100.006756563255,17.994847923575]},"properties":{"OBJECTID":103,"id":103,"code":1165,"name":"ปากปาน","name_en":"Pak Pan","short_name_th":"ปา.","name_zh":"巴班","short_name_en":"PPA","control_division":33,"exact_km":538,"exact_distance":538,"telegraph_km":538,"class":3}},{"type":"Feature","id":104,"geometry":{"type":"Point","coordinates":[99.9469930816523,18.0247365883156]},"properties":{"OBJECTID":104,"id":104,"code":1167,"name":"แก่งหลวง","name_en":"Kaeng Luang","short_name_th":"กล.","name_zh":"更隆","short_name_en":"KAL","control_division":33,"exact_km":547,"exact_distance":546,"telegraph_km":546,"class":3}},{"type":"Feature","id":105,"geometry":{"type":"Point","coordinates":[99.923000598202,18.076159204736]},"properties":{"OBJECTID":105,"id":105,"code":1169,"name":"ห้วยแม่ต้า","name_en":"Huai Mae Ta","short_name_th":"วต.","name_zh":"辉湄达","short_name_en":"HMT","control_division":33,"exact_km":554,"exact_distance":554,"telegraph_km":554,"class":98}},{"type":"Feature","id":106,"geometry":{"type":"Point","coordinates":[99.8670554769361,18.0961057157202]},"properties":{"OBJECTID":106,"id":106,"code":1172,"name":"บ้านปิน","name_en":"Ban Pin","short_name_th":"บป.","name_zh":"班彬","short_name_en":"BAP","control_division":33,"exact_km":564,"exact_distance":563,"telegraph_km":563,"class":3}},{"type":"Feature","id":107,"geometry":{"type":"Point","coordinates":[99.8707574097214,18.2071593618141]},"properties":{"OBJECTID":107,"id":107,"code":1176,"name":"ผาคัน","name_en":"Pha Khan","short_name_th":"ผน.","name_zh":"帕砍","short_name_en":"PKN","control_division":33,"exact_km":578,"exact_distance":578,"telegraph_km":578,"class":3}},{"type":"Feature","id":108,"geometry":{"type":"Point","coordinates":[99.8767515478968,18.2281862975746]},"properties":{"OBJECTID":108,"id":108,"code":1177,"name":"ผาคอ","name_en":"Pha Kho","short_name_th":"ผค.","name_zh":"帕蔻","short_name_en":"PKO","control_division":33,"exact_km":581,"exact_distance":581,"telegraph_km":581,"class":98}},{"type":"Feature","id":109,"geometry":{"type":"Point","coordinates":[99.8583907069949,18.2989848127551]},"properties":{"OBJECTID":109,"id":109,"code":1180,"name":"ปางป๋วย","name_en":"Pang Puai","short_name_th":"ปย.","name_zh":"邦平","short_name_en":"PPU","control_division":33,"exact_km":591,"exact_distance":591,"telegraph_km":591,"class":3}},{"type":"Feature","id":110,"geometry":{"type":"Point","coordinates":[99.7862764143166,18.2728060556016]},"properties":{"OBJECTID":110,"id":110,"code":1182,"name":"แม่จาง","name_en":"Mae Chang","short_name_th":"มจ.","name_zh":"湄张","short_name_en":"MCH","control_division":33,"exact_km":600,"exact_distance":600,"telegraph_km":600,"class":3}},{"type":"Feature","id":111,"geometry":{"type":"Point","coordinates":[99.7068580971681,18.2612885890169]},"properties":{"OBJECTID":111,"id":111,"code":1184,"name":"แม่เมาะ","name_en":"Mae Mo","short_name_th":"มม.","name_zh":"湄莫","short_name_en":"MAM","control_division":33,"exact_km":609,"exact_distance":609,"telegraph_km":609,"class":2}},{"type":"Feature","id":112,"geometry":{"type":"Point","coordinates":[99.6574177483464,18.2558846463832]},"properties":{"OBJECTID":112,"id":112,"code":1185,"name":"ห้วยรากไม้","name_en":"Huai Rak Mai","short_name_th":"รไ.","name_zh":"辉郎迈","short_name_en":"HRM","control_division":33,"exact_km":615,"exact_distance":614,"telegraph_km":614,"class":98}},{"type":"Feature","id":113,"geometry":{"type":"Point","coordinates":[99.5958462856488,18.2385705751221]},"properties":{"OBJECTID":113,"id":113,"code":1187,"name":"ศาลาผาลาด","name_en":"Sala Pha Lat","short_name_th":"ผล.","name_zh":"沙拉帕拉","short_name_en":"SPL","control_division":33,"exact_km":622,"exact_distance":622,"telegraph_km":622,"class":3}},{"type":"Feature","id":114,"geometry":{"type":"Point","coordinates":[99.5567663632629,18.2000305133924]},"properties":{"OBJECTID":114,"id":114,"code":1189,"name":"แม่ทะ","name_en":"Mae Tha","short_name_th":"มท.","name_zh":"湄塔","short_name_en":"MTH","control_division":33,"exact_km":628,"exact_distance":628,"telegraph_km":628,"class":2}},{"type":"Feature","id":115,"geometry":{"type":"Point","coordinates":[99.5006103747038,18.244097279244]},"properties":{"OBJECTID":115,"id":115,"code":1192,"name":"หนองวัวเฒ่า","name_en":"Nong Wua Thao","short_name_th":"วถ.","name_zh":"农窝涛","short_name_en":"NOW","control_division":33,"exact_km":637,"exact_distance":637,"telegraph_km":637,"class":3}},{"type":"Feature","id":116,"geometry":{"type":"Point","coordinates":[99.4730606412621,18.2794561191537]},"properties":{"OBJECTID":116,"id":116,"code":1193,"name":"นครลำปาง","name_en":"Nakhon Lampang","short_name_th":"ลป.","name_zh":"南邦府","short_name_en":"NKL","control_division":33,"exact_km":642,"exact_distance":642,"telegraph_km":642,"class":1}},{"type":"Feature","id":117,"geometry":{"type":"Point","coordinates":[99.369891189219,18.3360446124981]},"properties":{"OBJECTID":117,"id":117,"code":1196,"name":"ห้างฉัตร","name_en":"Hang Chat","short_name_th":"หฉ.","name_zh":"杭寨","short_name_en":"HGC","control_division":33,"exact_km":655,"exact_distance":654,"telegraph_km":654,"class":3}},{"type":"Feature","id":118,"geometry":{"type":"Point","coordinates":[99.3251430488298,18.3699766149956]},"properties":{"OBJECTID":118,"id":118,"code":1198,"name":"ปางม่วง","name_en":"Pang Muang","short_name_th":"ปม.","name_zh":"邦孟","short_name_en":"PAM","control_division":33,"exact_km":661,"exact_distance":660,"telegraph_km":660,"class":3}},{"type":"Feature","id":119,"geometry":{"type":"Point","coordinates":[99.2950276537186,18.3702873278017]},"properties":{"OBJECTID":119,"id":119,"code":1199,"name":"ห้วยเรียน","name_en":"Huai Rian","short_name_th":"ยเ.","name_zh":"辉莲","short_name_en":"HRI","control_division":33,"exact_km":665,"exact_distance":665,"telegraph_km":665,"class":98}},{"type":"Feature","id":120,"geometry":{"type":"Point","coordinates":[99.2632189898918,18.4037647876505]},"properties":{"OBJECTID":120,"id":120,"code":1201,"name":"แม่ตานน้อย","name_en":"Mae Tan Noi","short_name_th":"มต.","name_zh":"湄丹纳","short_name_en":"MTN","control_division":33,"exact_km":671,"exact_distance":671,"telegraph_km":671,"class":3}},{"type":"Feature","id":121,"geometry":{"type":"Point","coordinates":[99.2653849602147,18.500189194798]},"properties":{"OBJECTID":121,"id":121,"code":1204,"name":"ขุนตาน","name_en":"Khun Tan","short_name_th":"ขน.","name_zh":"坤丹","short_name_en":"KHT","control_division":33,"exact_km":683,"exact_distance":683,"telegraph_km":683,"class":3}},{"type":"Feature","id":122,"geometry":{"type":"Point","coordinates":[99.2053577475544,18.5064123447495]},"properties":{"OBJECTID":122,"id":122,"code":1206,"name":"ทาชมภู","name_en":"Tha Chomphu","short_name_th":"าช.","name_zh":"塔崇普","short_name_en":"TCP","control_division":33,"exact_km":692,"exact_distance":691,"telegraph_km":691,"class":3}},{"type":"Feature","id":123,"geometry":{"type":"Point","coordinates":[99.1390184957616,18.4617713762952]},"properties":{"OBJECTID":123,"id":123,"code":1208,"name":"ศาลาแม่ทา","name_en":"Sala Mae Tha","short_name_th":"ลท.","name_zh":"莎拉湄塔","short_name_en":"SMT","control_division":33,"exact_km":701,"exact_distance":700,"telegraph_km":700,"class":3}},{"type":"Feature","id":124,"geometry":{"type":"Point","coordinates":[99.0570812706519,18.4623905658864]},"properties":{"OBJECTID":124,"id":124,"code":1212,"name":"หนองหล่ม","name_en":"Nong Lom","short_name_th":"งล.","name_zh":"农隆","short_name_en":"NOL","control_division":33,"exact_km":713,"exact_distance":713,"telegraph_km":713,"class":3}},{"type":"Feature","id":125,"geometry":{"type":"Point","coordinates":[99.0209862620092,18.5935858800489]},"properties":{"OBJECTID":125,"id":125,"code":1216,"name":"ลำพูน","name_en":"Lamphun","short_name_th":"ลพ.","name_zh":"南奔府","short_name_en":"LMP","control_division":33,"exact_km":729,"exact_distance":729,"telegraph_km":729,"class":1}},{"type":"Feature","id":126,"geometry":{"type":"Point","coordinates":[99.0421686784353,18.6374745618641]},"properties":{"OBJECTID":126,"id":126,"code":1218,"name":"ป่าเส้า","name_en":"Pa Sao","short_name_th":"ปส.","name_zh":"帕绍","short_name_en":"PSO","control_division":33,"exact_km":735,"exact_distance":734,"telegraph_km":734,"class":3}},{"type":"Feature","id":127,"geometry":{"type":"Point","coordinates":[99.0418126176137,18.7101444824913]},"properties":{"OBJECTID":127,"id":127,"code":1220,"name":"สารภี","name_en":"Saraphi","short_name_th":"ภอี.","name_zh":"萨拉批","short_name_en":"SRP","control_division":33,"exact_km":743,"exact_distance":742,"telegraph_km":742,"class":3}},{"type":"Feature","id":128,"geometry":{"type":"Point","coordinates":[99.0167847698562,18.7828383101557]},"properties":{"OBJECTID":128,"id":128,"code":1222,"name":"เชียงใหม่","name_en":"Chiang Mai","short_name_th":"ชม.","name_zh":"清邁府","short_name_en":"CGM","control_division":33,"exact_km":751,"exact_distance":751,"telegraph_km":751,"class":1}},{"type":"Feature","id":129,"geometry":{"type":"Point","coordinates":[100.598139905856,14.0232671662277]},"properties":{"OBJECTID":129,"id":129,"code":1223,"name":"คลองหนึ่ง","name_en":"Khlong Nhung","short_name_th":"ลห.","name_zh":"空能","short_name_en":"KNH","control_division":11,"exact_km":34,"exact_distance":33,"telegraph_km":33,"class":99}},{"type":"Feature","id":130,"geometry":{"type":"Point","coordinates":[100.728405265241,14.4795785423187]},"properties":{"OBJECTID":130,"id":130,"code":1224,"name":"ดอนหญ้านาง","name_en":"Don Yha Nang","short_name_th":"ญา.","name_zh":"东亚囊","short_name_en":"DYN","control_division":11,"exact_km":94,"exact_distance":93,"telegraph_km":93,"class":99}},{"type":"Feature","id":131,"geometry":{"type":"Point","coordinates":[100.589061381964,13.8986213583013]},"properties":{"OBJECTID":131,"id":131,"code":1225,"name":"การเคหะ กม.19","name_en":"Khan Keha Khomo Sipkao","short_name_th":"คห.","name_zh":"甘可哈 歌摩 19","short_name_en":"KKK","control_division":14,"exact_km":19,"exact_distance":19,"telegraph_km":19,"class":99}},{"type":"Feature","id":132,"geometry":{"type":"Point","coordinates":[100.210894554652,15.7241594091968]},"properties":{"OBJECTID":132,"id":132,"code":1226,"name":"บึงบอระเพ็ด","name_en":"Bung Borapret","short_name_th":"เพ.","name_zh":"蹦波拉佩","short_name_en":"BBP","control_division":31,"exact_km":257,"exact_distance":257,"telegraph_km":257,"class":3}},{"type":"Feature","id":133,"geometry":{"type":"Point","coordinates":[100.540332738742,13.8048684886066]},"properties":{"OBJECTID":133,"id":133,"code":1228,"name":"ชุมทางบางซื่อ 2","name_en":"Bang Sue Junction","short_name_th":"บซ.2","name_zh":"邦苏总站","short_name_en":"BSJ2","control_division":14,"exact_km":7,"exact_distance":7,"telegraph_km":7,"class":1}},{"type":"Feature","id":134,"geometry":{"type":"Point","coordinates":[100.465918684238,15.1160316106154]},"properties":{"OBJECTID":134,"id":134,"code":1229,"name":"โรงเรียนจันเสน","name_en":"Rong Rien Chansen","short_name_th":"รจ.","name_zh":"参森学校","short_name_en":"RRC","control_division":31,"exact_km":173,"exact_distance":172,"telegraph_km":172,"class":99}},{"type":"Feature","id":135,"geometry":{"type":"Point","coordinates":[100.588558794015,14.0796302946886]},"properties":{"OBJECTID":135,"id":135,"code":1230,"name":"ม.ธรรมศาสตร์","name_en":"Thammasat University","short_name_th":"ธส.","name_zh":"法政大学","short_name_en":"TMS","control_division":11,"exact_km":40,"exact_distance":40,"telegraph_km":40,"class":98}},{"type":"Feature","id":136,"geometry":{"type":"Point","coordinates":[100.545563860347,13.8185587580771]},"properties":{"OBJECTID":136,"id":136,"code":1231,"name":"พหลโยธิน","name_en":"Phahonyothin","short_name_th":"พโ.","name_zh":"拍凤裕庭","short_name_en":"PYH","control_division":14,"exact_km":9,"exact_distance":8,"telegraph_km":8,"class":4}},{"type":"Feature","id":137,"geometry":{"type":"Point","coordinates":[100.524772667664,13.7665612041406]},"properties":{"OBJECTID":137,"id":137,"code":1232,"name":"โรงพยาบาลรามาธิบดี","name_en":"RAMATHIBODI HOSPITAL","short_name_th":"รธ.","name_zh":"拉玛铁菩提医院","short_name_en":"RMD","control_division":14,"exact_km":3,"exact_distance":3,"telegraph_km":3,"class":99}},{"type":"Feature","id":138,"geometry":{"type":"Point","coordinates":[100.606687935742,13.9535400846383]},"properties":{"OBJECTID":138,"id":138,"code":1233,"name":"แกรนด์ คาแนล","name_en":"Grand Canal","short_name_th":"คแ.","name_zh":"格兰卡内","short_name_en":"GRC","control_division":14,"exact_km":24,"exact_distance":24,"telegraph_km":24,"class":99}},{"type":"Feature","id":139,"geometry":{"type":"Point","coordinates":[100.757153757501,14.4736292115248]},"properties":{"OBJECTID":139,"id":139,"code":2001,"name":"หนองกวย","name_en":"Nong Kuai","short_name_th":"นก.","name_zh":"农归","short_name_en":"NKU","control_division":11,"exact_km":95,"exact_distance":94,"telegraph_km":94,"class":3}},{"type":"Feature","id":140,"geometry":{"type":"Point","coordinates":[100.783832168297,14.4904255332869]},"properties":{"OBJECTID":140,"id":140,"code":2002,"name":"หนองแซง","name_en":"Nong Saeng","short_name_th":"นซ.","name_zh":"农色","short_name_en":"NSE","control_division":11,"exact_km":98,"exact_distance":98,"telegraph_km":98,"class":2}},{"type":"Feature","id":141,"geometry":{"type":"Point","coordinates":[100.825039480282,14.5163608592424]},"properties":{"OBJECTID":141,"id":141,"code":2004,"name":"หนองสีดา","name_en":"Nong Sida","short_name_th":"นด.","name_zh":"农斯达","short_name_en":"NOA","control_division":11,"exact_km":103,"exact_distance":103,"telegraph_km":103,"class":3}},{"type":"Feature","id":142,"geometry":{"type":"Point","coordinates":[100.864381694992,14.5224481723488]},"properties":{"OBJECTID":142,"id":142,"code":2005,"name":"บ้านป๊อกแป๊ก","name_en":"Ban Pokpaek","short_name_th":"ปป.","name_zh":"班勃本","short_name_en":"BPP","control_division":11,"exact_km":108,"exact_distance":107,"telegraph_km":107,"class":2}},{"type":"Feature","id":143,"geometry":{"type":"Point","coordinates":[100.916267526919,14.5274428026908]},"properties":{"OBJECTID":143,"id":143,"code":2007,"name":"สระบุรี","name_en":"Saraburi","short_name_th":"ะร.","name_zh":"北標府","short_name_en":"SRR","control_division":11,"exact_km":113,"exact_distance":113,"telegraph_km":113,"class":1}},{"type":"Feature","id":144,"geometry":{"type":"Point","coordinates":[100.962615867913,14.5554249985755]},"properties":{"OBJECTID":144,"id":144,"code":2009,"name":"หนองบัว","name_en":"Nong Bua","short_name_th":"นบ.","name_zh":"农博","short_name_en":"NBU","control_division":11,"exact_km":119,"exact_distance":119,"telegraph_km":119,"class":3}},{"type":"Feature","id":145,"geometry":{"type":"Point","coordinates":[101.005317149481,14.5875207905512]},"properties":{"OBJECTID":145,"id":145,"code":2011,"name":"ชุมทางแก่งคอย","name_en":"Kaeng Khoi Junction","short_name_th":"กค.","name_zh":"耕凯总站","short_name_en":"KKJ","control_division":21,"exact_km":125,"exact_distance":125,"telegraph_km":125,"class":1}},{"type":"Feature","id":146,"geometry":{"type":"Point","coordinates":[101.018102997455,14.6152029873735]},"properties":{"OBJECTID":146,"id":146,"code":2012,"name":"บ้านช่องใต้","name_en":"Ban Chong Tai","short_name_th":"ชต.","name_zh":"班琼代","short_name_en":"BCT","control_division":22,"exact_km":129,"exact_distance":128,"telegraph_km":128,"class":2}},{"type":"Feature","id":147,"geometry":{"type":"Point","coordinates":[101.017085091113,14.6631247070039]},"properties":{"OBJECTID":147,"id":147,"code":2013,"name":"เขาคอก","name_en":"Khao Khok","short_name_th":"ขก.","name_zh":"考科","short_name_en":"KOK","control_division":22,"exact_km":134,"exact_distance":134,"telegraph_km":134,"class":98}},{"type":"Feature","id":148,"geometry":{"type":"Point","coordinates":[101.008941786859,14.7156248535382]},"properties":{"OBJECTID":148,"id":148,"code":2015,"name":"เขาหินดาด","name_en":"Khao Hin Dat","short_name_th":"ดด.","name_zh":"考欣达","short_name_en":"KSD","control_division":22,"exact_km":142,"exact_distance":141,"telegraph_km":141,"class":98}},{"type":"Feature","id":149,"geometry":{"type":"Point","coordinates":[101.051065842327,14.7411683337398]},"properties":{"OBJECTID":149,"id":149,"code":2017,"name":"หินซ้อน","name_en":"Hin Son","short_name_th":"หซ.","name_zh":"欣宋","short_name_en":"HIS","control_division":22,"exact_km":148,"exact_distance":147,"telegraph_km":147,"class":4}},{"type":"Feature","id":150,"geometry":{"type":"Point","coordinates":[101.054416907877,14.7799736415399]},"properties":{"OBJECTID":150,"id":150,"code":2018,"name":"เขาสูง","name_en":"Khao Sung","short_name_th":"ขส.","name_zh":"考宋","short_name_en":"KHS","control_division":22,"exact_km":152,"exact_distance":152,"telegraph_km":152,"class":98}},{"type":"Feature","id":151,"geometry":{"type":"Point","coordinates":[101.063736207626,14.8422385913255]},"properties":{"OBJECTID":151,"id":151,"code":2020,"name":"แก่งเสือเต้น","name_en":"Kaeng Sue Ten","short_name_th":"แส.","name_zh":"庚森腾","short_name_en":"KST","control_division":22,"exact_km":160,"exact_distance":159,"telegraph_km":159,"class":4}},{"type":"Feature","id":152,"geometry":{"type":"Point","coordinates":[101.0210268345,14.9371689858154]},"properties":{"OBJECTID":152,"id":152,"code":2022,"name":"บ้านหนองบัว","name_en":"Ban Nong Bua","short_name_th":"บว.","name_zh":"班农博","short_name_en":"BNB","control_division":22,"exact_km":166,"exact_distance":165,"telegraph_km":165,"class":98}},{"type":"Feature","id":153,"geometry":{"type":"Point","coordinates":[101.0230827443,14.9871337817541]},"properties":{"OBJECTID":153,"id":153,"code":2024,"name":"โคกสลุง","name_en":"Khok Salung","short_name_th":"คุ.","name_zh":"可沙隆","short_name_en":"KSL","control_division":22,"exact_km":177,"exact_distance":176,"telegraph_km":176,"class":4}},{"type":"Feature","id":154,"geometry":{"type":"Point","coordinates":[101.017173106777,15.0701482278586]},"properties":{"OBJECTID":154,"id":154,"code":2026,"name":"สุรนารายณ์","name_en":"Suranarai","short_name_th":"ะน.","name_zh":"素拉那莱","short_name_en":"SNR","control_division":22,"exact_km":186,"exact_distance":185,"telegraph_km":185,"class":4}},{"type":"Feature","id":155,"geometry":{"type":"Point","coordinates":[101.043697293286,15.1355906074595]},"properties":{"OBJECTID":155,"id":155,"code":2028,"name":"โรงเรียนอัสสัมชัญคอนแวนต์","name_en":"Assumption Convent School","short_name_th":"อแ.","name_zh":"易三仓孔万学校","short_name_en":"ACS","control_division":22,"exact_km":194,"exact_distance":193,"telegraph_km":193,"class":98}},{"type":"Feature","id":156,"geometry":{"type":"Point","coordinates":[101.077412466306,15.1866728512709]},"properties":{"OBJECTID":156,"id":156,"code":2030,"name":"เขายายกะตา","name_en":"Khao Yai Ka Ta","short_name_th":"เย.","name_zh":"考亚卡达","short_name_en":"KYT","control_division":22,"exact_km":199,"exact_distance":198,"telegraph_km":198,"class":98}},{"type":"Feature","id":157,"geometry":{"type":"Point","coordinates":[101.130704458074,15.2104818656244]},"properties":{"OBJECTID":157,"id":157,"code":2032,"name":"ตลาดลำนารายณ์","name_en":"Talat Lam Narai","short_name_th":"รน.","name_zh":"达拉兰南莱","short_name_en":"TLN","control_division":22,"exact_km":207,"exact_distance":207,"telegraph_km":207,"class":98}},{"type":"Feature","id":158,"geometry":{"type":"Point","coordinates":[101.139530655448,15.2200679319596]},"properties":{"OBJECTID":158,"id":158,"code":2033,"name":"ลำนารายณ์","name_en":"Lam Narai","short_name_th":"ลา.","name_zh":"兰南莱","short_name_en":"LNR","control_division":22,"exact_km":209,"exact_distance":208,"telegraph_km":208,"class":3}},{"type":"Feature","id":159,"geometry":{"type":"Point","coordinates":[101.22085352288,15.2790753223421]},"properties":{"OBJECTID":159,"id":159,"code":2036,"name":"บ้านเกาะรัง","name_en":"Ban Ko Rang","short_name_th":"รง.","name_zh":"班阁拉","short_name_en":"BKR","control_division":22,"exact_km":220,"exact_distance":220,"telegraph_km":220,"class":98}},{"type":"Feature","id":160,"geometry":{"type":"Point","coordinates":[101.260592560373,15.2503110165793]},"properties":{"OBJECTID":160,"id":160,"code":2038,"name":"แผ่นดินทอง","name_en":"Phaendin Thong","short_name_th":"แง.","name_zh":"彭丁通","short_name_en":"PDT","control_division":22,"exact_km":226,"exact_distance":226,"telegraph_km":226,"class":4}},{"type":"Feature","id":161,"geometry":{"type":"Point","coordinates":[101.336367270949,15.2626802648128]},"properties":{"OBJECTID":161,"id":161,"code":2041,"name":"บ้านจงโก","name_en":"Ban Chongko","short_name_th":"จโ.","name_zh":"班中阁","short_name_en":"BCK","control_division":22,"exact_km":237,"exact_distance":236,"telegraph_km":236,"class":98}},{"type":"Feature","id":162,"geometry":{"type":"Point","coordinates":[101.36407007089,15.2745145528073]},"properties":{"OBJECTID":162,"id":162,"code":2042,"name":"โคกคลี","name_en":"Khok Khli","short_name_th":"คอี.","name_zh":"珂可丽","short_name_en":"KKI","control_division":22,"exact_km":241,"exact_distance":240,"telegraph_km":240,"class":3}},{"type":"Feature","id":163,"geometry":{"type":"Point","coordinates":[101.386935739846,15.3521364462741]},"properties":{"OBJECTID":163,"id":163,"code":2045,"name":"ช่องสำราญ","name_en":"Chong Samran","short_name_th":"อช.","name_zh":"琼三蓝","short_name_en":"CSR","control_division":22,"exact_km":251,"exact_distance":250,"telegraph_km":250,"class":3}},{"type":"Feature","id":164,"geometry":{"type":"Point","coordinates":[101.453475807504,15.3972674748426]},"properties":{"OBJECTID":164,"id":164,"code":2049,"name":"บ้านวะตะแบก (เทพสถิต)","name_en":"Ban Wa Tabaek (Thep Sa Thit)","short_name_th":"แบ.","name_zh":"班瓦达巴（特沙提）","short_name_en":"BWT","control_division":22,"exact_km":263,"exact_distance":263,"telegraph_km":263,"class":2}},{"type":"Feature","id":165,"geometry":{"type":"Point","coordinates":[101.531123847188,15.4246031634609]},"properties":{"OBJECTID":165,"id":165,"code":2052,"name":"ห้วยยายจิ๋ว","name_en":"Huai Yai Chiu","short_name_th":"จย.","name_zh":"辉亚九","short_name_en":"HYC","control_division":22,"exact_km":273,"exact_distance":273,"telegraph_km":273,"class":3}},{"type":"Feature","id":166,"geometry":{"type":"Point","coordinates":[101.593651774418,15.4357654219395]},"properties":{"OBJECTID":166,"id":166,"code":2054,"name":"บ้านปากจาบ","name_en":"Ban Pak Chap","short_name_th":"จบ.","name_zh":"班巴扎","short_name_en":"BPC","control_division":22,"exact_km":280,"exact_distance":279,"telegraph_km":279,"class":98}},{"type":"Feature","id":167,"geometry":{"type":"Point","coordinates":[101.685357467833,15.4686523756467]},"properties":{"OBJECTID":167,"id":167,"code":2057,"name":"บำเหน็จณรงค์","name_en":"Bamnet Narong","short_name_th":"าจ.","name_zh":"巴呢那隆","short_name_en":"BNN","control_division":22,"exact_km":291,"exact_distance":290,"telegraph_km":290,"class":2}},{"type":"Feature","id":168,"geometry":{"type":"Point","coordinates":[101.709130852821,15.4799665169997]},"properties":{"OBJECTID":168,"id":168,"code":2058,"name":"บ้านกลอย","name_en":"Ban Kloy","short_name_th":"อ้ย.","name_zh":"班够","short_name_en":"BKY","control_division":22,"exact_km":293,"exact_distance":293,"telegraph_km":293,"class":99}},{"type":"Feature","id":169,"geometry":{"type":"Point","coordinates":[101.739617827397,15.4979247283016]},"properties":{"OBJECTID":169,"id":169,"code":2059,"name":"วังกะอาม","name_en":"Wang Ka-am","short_name_th":"วอ.","name_zh":"旺阁安","short_name_en":"WKA","control_division":22,"exact_km":297,"exact_distance":297,"telegraph_km":297,"class":98}},{"type":"Feature","id":170,"geometry":{"type":"Point","coordinates":[101.772036877154,15.5226950139936]},"properties":{"OBJECTID":170,"id":170,"code":2060,"name":"โนนคร้อ","name_en":"Non Khro","short_name_th":"นอ้.","name_zh":"暖空","short_name_en":"NKO","control_division":22,"exact_km":302,"exact_distance":302,"telegraph_km":302,"class":98}},{"type":"Feature","id":171,"geometry":{"type":"Point","coordinates":[101.840081470183,15.555733450279]},"properties":{"OBJECTID":171,"id":171,"code":2062,"name":"จัตุรัส","name_en":"Chatturat","short_name_th":"จต.","name_zh":"乍都拉","short_name_en":"CTR","control_division":22,"exact_km":310,"exact_distance":310,"telegraph_km":310,"class":2}},{"type":"Feature","id":172,"geometry":{"type":"Point","coordinates":[101.952773470376,15.5717028521591]},"properties":{"OBJECTID":172,"id":172,"code":2066,"name":"หนองฉิม","name_en":"Nong Chim","short_name_th":"ฉม.","name_zh":"农秦","short_name_en":"NOC","control_division":22,"exact_km":323,"exact_distance":322,"telegraph_km":322,"class":4}},{"type":"Feature","id":173,"geometry":{"type":"Point","coordinates":[102.02077420373,15.5773313188859]},"properties":{"OBJECTID":173,"id":173,"code":2068,"name":"บ้านตาเนิน","name_en":"Ban Ta Noen","short_name_th":"บต.","name_zh":"班达嫩","short_name_en":"BNO","control_division":22,"exact_km":330,"exact_distance":330,"telegraph_km":330,"class":98}},{"type":"Feature","id":174,"geometry":{"type":"Point","coordinates":[102.056056599292,15.5831080553752]},"properties":{"OBJECTID":174,"id":174,"code":2069,"name":"บ้านหนองขาม","name_en":"Ban Nong Kham","short_name_th":"บอ้.","name_zh":"班农堪","short_name_en":"KHA","control_division":22,"exact_km":334,"exact_distance":334,"telegraph_km":334,"class":98}},{"type":"Feature","id":175,"geometry":{"type":"Point","coordinates":[102.120018220677,15.6001780918521]},"properties":{"OBJECTID":175,"id":175,"code":2072,"name":"บ้านเหลื่อม","name_en":"Ban Luam","short_name_th":"นเ.","name_zh":"班楞","short_name_en":"BLM","control_division":22,"exact_km":341,"exact_distance":341,"telegraph_km":341,"class":2}},{"type":"Feature","id":176,"geometry":{"type":"Point","coordinates":[102.16467354257,15.6069881310029]},"properties":{"OBJECTID":176,"id":176,"code":2073,"name":"บ้านโคกกระเบื้อง","name_en":"Ban Khok Krabuang","short_name_th":"ะอ.","name_zh":"班 可 卡邦","short_name_en":"BKU","control_division":22,"exact_km":346,"exact_distance":346,"telegraph_km":346,"class":98}},{"type":"Feature","id":177,"geometry":{"type":"Point","coordinates":[102.217464623764,15.601900571257]},"properties":{"OBJECTID":177,"id":177,"code":2075,"name":"บ้านหนองปรือโป่ง","name_en":"Ban Nong Pru Pong","short_name_th":"นป.","name_zh":"班农批蓬","short_name_en":"BPO","control_division":22,"exact_km":352,"exact_distance":351,"telegraph_km":351,"class":98}},{"type":"Feature","id":178,"geometry":{"type":"Point","coordinates":[102.248589605244,15.5988981413991]},"properties":{"OBJECTID":178,"id":178,"code":2076,"name":"หนองพลวง","name_en":"Nong Phluang","short_name_th":"งว.","name_zh":"农普朗","short_name_en":"NNP","control_division":22,"exact_km":355,"exact_distance":355,"telegraph_km":355,"class":4}},{"type":"Feature","id":179,"geometry":{"type":"Point","coordinates":[102.294189819332,15.6054561892171]},"properties":{"OBJECTID":179,"id":179,"code":2077,"name":"บ้านเก่างิ้ว","name_en":"Ban Kao Ngiu","short_name_th":"งิ.","name_zh":"班高球","short_name_en":"BNG","control_division":22,"exact_km":360,"exact_distance":360,"telegraph_km":360,"class":99}},{"type":"Feature","id":180,"geometry":{"type":"Point","coordinates":[102.311943690034,15.6044640766466]},"properties":{"OBJECTID":180,"id":180,"code":2078,"name":"บ้านสระครก","name_en":"Ban Sa Khrok","short_name_th":"ะค.","name_zh":"班洒可","short_name_en":"BSK","control_division":22,"exact_km":362,"exact_distance":362,"telegraph_km":362,"class":98}},{"type":"Feature","id":181,"geometry":{"type":"Point","coordinates":[102.35138121263,15.5984829194171]},"properties":{"OBJECTID":181,"id":181,"code":2079,"name":"บ้านโสกรัง","name_en":"Ban Sok Rang","short_name_th":"บั.","name_zh":"班颂让","short_name_en":"BSR","control_division":22,"exact_km":367,"exact_distance":366,"telegraph_km":366,"class":98}},{"type":"Feature","id":182,"geometry":{"type":"Point","coordinates":[101.060759824569,14.6081532142542]},"properties":{"OBJECTID":182,"id":182,"code":2081,"name":"ทับกวาง","name_en":"Thap Kwang","short_name_th":"กว.","name_zh":"塔光","short_name_en":"TKW","control_division":21,"exact_km":131,"exact_distance":131,"telegraph_km":131,"class":98}},{"type":"Feature","id":183,"geometry":{"type":"Point","coordinates":[101.083644823556,14.6189614765431]},"properties":{"OBJECTID":183,"id":183,"code":2082,"name":"มาบกะเบา","name_en":"Map Kabao","short_name_th":"มบ.","name_zh":"玛卡包","short_name_en":"MKB","control_division":21,"exact_km":134,"exact_distance":134,"telegraph_km":134,"class":2}},{"type":"Feature","id":184,"geometry":{"type":"Point","coordinates":[101.100640851384,14.6444902959168]},"properties":{"OBJECTID":184,"id":184,"code":2083,"name":"ผาเสด็จ","name_en":"Pha Sadet","short_name_th":"ผด.","name_zh":"帕萨德","short_name_en":"PSD","control_division":21,"exact_km":139,"exact_distance":138,"telegraph_km":138,"class":2}},{"type":"Feature","id":185,"geometry":{"type":"Point","coordinates":[101.133331649714,14.6631219111216]},"properties":{"OBJECTID":185,"id":185,"code":2084,"name":"หินลับ","name_en":"Hin Lap","short_name_th":"หล.","name_zh":"欣拉","short_name_en":"HIL","control_division":21,"exact_km":144,"exact_distance":144,"telegraph_km":144,"class":2}},{"type":"Feature","id":186,"geometry":{"type":"Point","coordinates":[101.199464529329,14.6512934330359]},"properties":{"OBJECTID":186,"id":186,"code":2086,"name":"มวกเหล็ก","name_en":"Muak Lek","short_name_th":"มล.","name_zh":"莫莱","short_name_en":"MUL","control_division":21,"exact_km":152,"exact_distance":152,"telegraph_km":152,"class":2}},{"type":"Feature","id":187,"geometry":{"type":"Point","coordinates":[101.252341853532,14.6480082787682]},"properties":{"OBJECTID":187,"id":187,"code":2088,"name":"กลางดง","name_en":"Klang Dong","short_name_th":"าง.","name_zh":"岗东","short_name_en":"KDO","control_division":21,"exact_km":160,"exact_distance":160,"telegraph_km":160,"class":2}},{"type":"Feature","id":188,"geometry":{"type":"Point","coordinates":[101.299894779702,14.6534932477549]},"properties":{"OBJECTID":188,"id":188,"code":2089,"name":"ปางอโศก","name_en":"Pang Asok","short_name_th":"โศ.","name_zh":"邦阿速","short_name_en":"PAS","control_division":21,"exact_km":165,"exact_distance":165,"telegraph_km":165,"class":2}},{"type":"Feature","id":189,"geometry":{"type":"Point","coordinates":[101.369334890466,14.6728908901469]},"properties":{"OBJECTID":189,"id":189,"code":2091,"name":"บันไดม้า","name_en":"Bandai Ma","short_name_th":"ได.","name_zh":"班带马","short_name_en":"BDM","control_division":21,"exact_km":174,"exact_distance":173,"telegraph_km":173,"class":2}},{"type":"Feature","id":190,"geometry":{"type":"Point","coordinates":[101.410413858711,14.7049978548873]},"properties":{"OBJECTID":190,"id":190,"code":2093,"name":"ปากช่อง","name_en":"Pak Chong","short_name_th":"ปช.","name_zh":"巴琼","short_name_en":"PAC","control_division":21,"exact_km":180,"exact_distance":179,"telegraph_km":179,"class":2}},{"type":"Feature","id":191,"geometry":{"type":"Point","coordinates":[101.455311753031,14.7616259111848]},"properties":{"OBJECTID":191,"id":191,"code":2095,"name":"ซับม่วง","name_en":"Sap Muang","short_name_th":"ซม.","name_zh":"萨蒙","short_name_en":"SMU","control_division":21,"exact_km":188,"exact_distance":187,"telegraph_km":187,"class":4}},{"type":"Feature","id":192,"geometry":{"type":"Point","coordinates":[101.493272442853,14.8144332618809]},"properties":{"OBJECTID":192,"id":192,"code":2096,"name":"จันทึก","name_en":"Chanthuk","short_name_th":"จท.","name_zh":"占特","short_name_en":"CNT","control_division":21,"exact_km":196,"exact_distance":195,"telegraph_km":195,"class":4}},{"type":"Feature","id":193,"geometry":{"type":"Point","coordinates":[101.544240082466,14.842499560071]},"properties":{"OBJECTID":193,"id":193,"code":2097,"name":"คลองขนานจิตร","name_en":"Khlong Khanan Chit","short_name_th":"ขจ.","name_zh":"空卡南集","short_name_en":"KKC","control_division":21,"exact_km":202,"exact_distance":202,"telegraph_km":202,"class":4}},{"type":"Feature","id":194,"geometry":{"type":"Point","coordinates":[101.571080820288,14.8742377875383]},"properties":{"OBJECTID":194,"id":194,"code":2100,"name":"คลองไผ่","name_en":"Khlong Phai","short_name_th":"คผ.","name_zh":"空派","short_name_en":"KPH","control_division":21,"exact_km":206,"exact_distance":206,"telegraph_km":206,"class":4}},{"type":"Feature","id":195,"geometry":{"type":"Point","coordinates":[101.600970770223,14.8601996577597]},"properties":{"OBJECTID":195,"id":195,"code":2101,"name":"ลาดบัวขาว","name_en":"Lat Bua Khao","short_name_th":"ลข.","name_zh":"拉博考","short_name_en":"LBK","control_division":21,"exact_km":209,"exact_distance":209,"telegraph_km":209,"class":4}},{"type":"Feature","id":196,"geometry":{"type":"Point","coordinates":[101.643671144731,14.8683771054636]},"properties":{"OBJECTID":196,"id":196,"code":2102,"name":"บ้านใหม่สำโรง","name_en":"Ban Mai Samrong","short_name_th":"สำ.","name_zh":"班迈桑隆","short_name_en":"BMS","control_division":21,"exact_km":215,"exact_distance":214,"telegraph_km":214,"class":4}},{"type":"Feature","id":197,"geometry":{"type":"Point","coordinates":[101.671784961391,14.8818890745864]},"properties":{"OBJECTID":197,"id":197,"code":2103,"name":"หนองน้ำขุ่น","name_en":"Nong Nam Khun","short_name_th":"นข.","name_zh":"农南坤","short_name_en":"NGK","control_division":21,"exact_km":218,"exact_distance":218,"telegraph_km":218,"class":4}},{"type":"Feature","id":198,"geometry":{"type":"Point","coordinates":[101.72119873184,14.8931488846027]},"properties":{"OBJECTID":198,"id":198,"code":2105,"name":"สีคิ้ว","name_en":"Sikhiu","short_name_th":"สค.","name_zh":"四秋","short_name_en":"SKI","control_division":21,"exact_km":224,"exact_distance":223,"telegraph_km":223,"class":2}},{"type":"Feature","id":199,"geometry":{"type":"Point","coordinates":[101.769434190856,14.8977768082418]},"properties":{"OBJECTID":199,"id":199,"code":2106,"name":"โคกสะอาด","name_en":"Khok Sa-at","short_name_th":"อา.","name_zh":"柯沙阿","short_name_en":"KSA","control_division":21,"exact_km":229,"exact_distance":228,"telegraph_km":228,"class":4}},{"type":"Feature","id":200,"geometry":{"type":"Point","coordinates":[101.814743989636,14.9000468880533]},"properties":{"OBJECTID":200,"id":200,"code":2107,"name":"สูงเนิน","name_en":"Sung Noen","short_name_th":"สน.","name_zh":"颂能","short_name_en":"SNN","control_division":21,"exact_km":234,"exact_distance":233,"telegraph_km":233,"class":2}},{"type":"Feature","id":201,"geometry":{"type":"Point","coordinates":[101.882102498911,14.9055947867048]},"properties":{"OBJECTID":201,"id":201,"code":2109,"name":"กุดจิก","name_en":"Kut Chik","short_name_th":"กจ.","name_zh":"谷吉","short_name_en":"KCK","control_division":21,"exact_km":241,"exact_distance":241,"telegraph_km":241,"class":3}},{"type":"Feature","id":202,"geometry":{"type":"Point","coordinates":[101.9589287375,14.9312427953009]},"properties":{"OBJECTID":202,"id":202,"code":2111,"name":"โคกกรวด","name_en":"Khok Kruat","short_name_th":"คก.","name_zh":"柯昆","short_name_en":"KKU","control_division":21,"exact_km":250,"exact_distance":249,"telegraph_km":249,"class":3}},{"type":"Feature","id":203,"geometry":{"type":"Point","coordinates":[102.022980026497,14.9559162472379]},"properties":{"OBJECTID":203,"id":203,"code":2113,"name":"ภูเขาลาด","name_en":"Phu Khao Lat","short_name_th":"ขล.","name_zh":"普考拉","short_name_en":"PKL","control_division":21,"exact_km":257,"exact_distance":257,"telegraph_km":257,"class":4}},{"type":"Feature","id":204,"geometry":{"type":"Point","coordinates":[102.078918109123,14.972342417484]},"properties":{"OBJECTID":204,"id":204,"code":2114,"name":"นครราชสีมา","name_en":"Nakhon Ratchasima","short_name_th":"รส.","name_zh":"呵叻府","short_name_en":"NRS","control_division":23,"exact_km":264,"exact_distance":263,"telegraph_km":263,"class":1}},{"type":"Feature","id":205,"geometry":{"type":"Point","coordinates":[102.101895578577,14.9675897950585]},"properties":{"OBJECTID":205,"id":205,"code":2115,"name":"ชุมทางถนนจิระ","name_en":"Thanon Chira Junction","short_name_th":"จร.","name_zh":"塔能吉拉总站","short_name_en":"TNJ","control_division":23,"exact_km":266,"exact_distance":266,"telegraph_km":266,"class":2}},{"type":"Feature","id":206,"geometry":{"type":"Point","coordinates":[102.138536101614,15.004604875459]},"properties":{"OBJECTID":206,"id":206,"code":2117,"name":"บ้านเกาะ","name_en":"Ban Ko","short_name_th":"กะ.","name_zh":"班阁","short_name_en":"BAK","control_division":24,"exact_km":273,"exact_distance":272,"telegraph_km":272,"class":4}},{"type":"Feature","id":207,"geometry":{"type":"Point","coordinates":[102.180102324581,15.0897495623815]},"properties":{"OBJECTID":207,"id":207,"code":2119,"name":"หนองไข่น้ำ","name_en":"Nong Khai Nam","short_name_th":"อข.","name_zh":"廊开南","short_name_en":"NKN","control_division":24,"exact_km":282,"exact_distance":282,"telegraph_km":282,"class":98}},{"type":"Feature","id":208,"geometry":{"type":"Point","coordinates":[102.187043609547,15.104121744763]},"properties":{"OBJECTID":208,"id":208,"code":2120,"name":"บ้านกระโดน","name_en":"Ban Kradon","short_name_th":"กโ.","name_zh":"班卡东","short_name_en":"BKD","control_division":24,"exact_km":285,"exact_distance":284,"telegraph_km":284,"class":98}},{"type":"Feature","id":209,"geometry":{"type":"Point","coordinates":[102.216272053298,15.1407496743271]},"properties":{"OBJECTID":209,"id":209,"code":2121,"name":"หนองแมว","name_en":"Nong Maeo","short_name_th":"นง.","name_zh":"农猫","short_name_en":"NNM","control_division":24,"exact_km":290,"exact_distance":289,"telegraph_km":289,"class":4}},{"type":"Feature","id":210,"geometry":{"type":"Point","coordinates":[102.248209288604,15.1768691615443]},"properties":{"OBJECTID":210,"id":210,"code":2122,"name":"โนนสูง","name_en":"Non Sung","short_name_th":"นโ.","name_zh":"农颂","short_name_en":"NSU","control_division":24,"exact_km":295,"exact_distance":295,"telegraph_km":295,"class":3}},{"type":"Feature","id":211,"geometry":{"type":"Point","coordinates":[102.289342976213,15.2268380487489]},"properties":{"OBJECTID":211,"id":211,"code":2124,"name":"บ้านดงพลอง","name_en":"Ban Dong Phlong","short_name_th":"ดพ.","name_zh":"班东蓬","short_name_en":"BDP","control_division":24,"exact_km":302,"exact_distance":302,"telegraph_km":302,"class":4}},{"type":"Feature","id":212,"geometry":{"type":"Point","coordinates":[102.29537594767,15.2813080214193]},"properties":{"OBJECTID":212,"id":212,"code":2126,"name":"บ้านมะค่า","name_en":"Ban Makha","short_name_th":"มค.","name_zh":"班玛卡","short_name_en":"BMK","control_division":24,"exact_km":308,"exact_distance":308,"telegraph_km":308,"class":4}},{"type":"Feature","id":213,"geometry":{"type":"Point","coordinates":[102.298359408797,15.3093838502386]},"properties":{"OBJECTID":213,"id":213,"code":2127,"name":"เนินถั่วแปบ","name_en":"Noen Thua Paep","short_name_th":"ถป.","name_zh":"嫩托帕","short_name_en":"NTP","control_division":24,"exact_km":311,"exact_distance":311,"telegraph_km":311,"class":98}},{"type":"Feature","id":214,"geometry":{"type":"Point","coordinates":[102.303743070953,15.3483079407672]},"properties":{"OBJECTID":214,"id":214,"code":2128,"name":"พลสงคราม","name_en":"Phon Songkhram","short_name_th":"พค.","name_zh":"喷宋堪","short_name_en":"PSK","control_division":24,"exact_km":316,"exact_distance":315,"telegraph_km":315,"class":4}},{"type":"Feature","id":215,"geometry":{"type":"Point","coordinates":[102.312927897057,15.389153799833]},"properties":{"OBJECTID":215,"id":215,"code":2129,"name":"บ้านดอนใหญ่","name_en":"Ban Don Yai","short_name_th":"ดญ.","name_zh":"班东亚","short_name_en":"BDY","control_division":24,"exact_km":320,"exact_distance":320,"telegraph_km":320,"class":4}},{"type":"Feature","id":216,"geometry":{"type":"Point","coordinates":[102.331274147628,15.4451467667157]},"properties":{"OBJECTID":216,"id":216,"code":2131,"name":"เมืองคง","name_en":"Muang Khong","short_name_th":"งค.","name_zh":"孟空","short_name_en":"MUK","control_division":24,"exact_km":327,"exact_distance":326,"telegraph_km":326,"class":3}},{"type":"Feature","id":217,"geometry":{"type":"Point","coordinates":[102.366326744399,15.4999747185753]},"properties":{"OBJECTID":217,"id":217,"code":2132,"name":"บ้านไร่","name_en":"Ban Rai","short_name_th":"นไ.","name_zh":"班莱","short_name_en":"BRI","control_division":24,"exact_km":334,"exact_distance":333,"telegraph_km":333,"class":98}},{"type":"Feature","id":218,"geometry":{"type":"Point","coordinates":[102.375860721858,15.5128544074969]},"properties":{"OBJECTID":218,"id":218,"code":2133,"name":"โนนทองหลาง","name_en":"Non Thong Lang","short_name_th":"นท.","name_zh":"农通郎","short_name_en":"NTL","control_division":24,"exact_km":336,"exact_distance":335,"telegraph_km":335,"class":4}},{"type":"Feature","id":219,"geometry":{"type":"Point","coordinates":[102.41130436704,15.5627866797249]},"properties":{"OBJECTID":219,"id":219,"code":2135,"name":"ห้วยระหัด","name_en":"Huai Rahat","short_name_th":"ยร.","name_zh":"辉拉哈","short_name_en":"HRH","control_division":24,"exact_km":343,"exact_distance":342,"telegraph_km":342,"class":98}},{"type":"Feature","id":220,"geometry":{"type":"Point","coordinates":[102.427257742339,15.5858924476338]},"properties":{"OBJECTID":220,"id":220,"code":2136,"name":"ชุมทางบัวใหญ่","name_en":"Bua Yai Junction","short_name_th":"วญ.","name_zh":"耕凯总站","short_name_en":"BYJ","control_division":24,"exact_km":346,"exact_distance":345,"telegraph_km":345,"class":1}},{"type":"Feature","id":221,"geometry":{"type":"Point","coordinates":[102.45830187137,15.6228097402872]},"properties":{"OBJECTID":221,"id":221,"code":2137,"name":"เนินสวัสดิ์","name_en":"Noen Sawat","short_name_th":"เว.","name_zh":"嫩沙瓦","short_name_en":"NSW","control_division":24,"exact_km":351,"exact_distance":351,"telegraph_km":351,"class":98}},{"type":"Feature","id":222,"geometry":{"type":"Point","coordinates":[102.496729117698,15.668436056795]},"properties":{"OBJECTID":222,"id":222,"code":2139,"name":"หนองบัวลาย","name_en":"Nong Bua Lai","short_name_th":"งบ.","name_zh":"农博莱","short_name_en":"NNB","control_division":24,"exact_km":357,"exact_distance":357,"telegraph_km":357,"class":2}},{"type":"Feature","id":223,"geometry":{"type":"Point","coordinates":[102.523012173635,15.7061774404245]},"properties":{"OBJECTID":223,"id":223,"code":2140,"name":"ศาลาดิน","name_en":"Sala Din","short_name_th":"ดอิ.","name_zh":"莎拉丁","short_name_en":"SLD","control_division":24,"exact_km":362,"exact_distance":362,"telegraph_km":362,"class":99}},{"type":"Feature","id":224,"geometry":{"type":"Point","coordinates":[102.567339989179,15.7585221160802]},"properties":{"OBJECTID":224,"id":224,"code":2142,"name":"หนองมะเขือ","name_en":"Nong Makhua","short_name_th":"งอ.","name_zh":"农玛肯","short_name_en":"NMK","control_division":24,"exact_km":370,"exact_distance":370,"telegraph_km":370,"class":4}},{"type":"Feature","id":225,"geometry":{"type":"Point","coordinates":[102.600526047279,15.8196616744265]},"properties":{"OBJECTID":225,"id":225,"code":2144,"name":"เมืองพล","name_en":"Muang Phon","short_name_th":"อล.","name_zh":"蒙潘","short_name_en":"MUP","control_division":24,"exact_km":378,"exact_distance":377,"telegraph_km":377,"class":2}},{"type":"Feature","id":226,"geometry":{"type":"Point","coordinates":[102.69373027419,15.9660510232033]},"properties":{"OBJECTID":226,"id":226,"code":2149,"name":"บ้านหัน","name_en":"Ban Han","short_name_th":"าห.","name_zh":"班汉","short_name_en":"BHN","control_division":24,"exact_km":397,"exact_distance":396,"telegraph_km":396,"class":4}},{"type":"Feature","id":227,"geometry":{"type":"Point","coordinates":[102.725404371904,16.0596546178638]},"properties":{"OBJECTID":227,"id":227,"code":2152,"name":"บ้านไผ่","name_en":"Ban Phai","short_name_th":"บผ.","name_zh":"班派","short_name_en":"PHI","control_division":24,"exact_km":408,"exact_distance":407,"telegraph_km":407,"class":2}},{"type":"Feature","id":228,"geometry":{"type":"Point","coordinates":[102.766225195432,16.197707121696]},"properties":{"OBJECTID":228,"id":228,"code":2156,"name":"บ้านแฮด","name_en":"Ban Haet","short_name_th":"ฮด.","name_zh":"班海","short_name_en":"BHT","control_division":24,"exact_km":424,"exact_distance":423,"telegraph_km":423,"class":4}},{"type":"Feature","id":229,"geometry":{"type":"Point","coordinates":[102.786769648649,16.2671597852132]},"properties":{"OBJECTID":229,"id":229,"code":2158,"name":"หนองเม็ก","name_en":"Nong Mek","short_name_th":"งม.","name_zh":"农美","short_name_en":"NME","control_division":24,"exact_km":432,"exact_distance":431,"telegraph_km":431,"class":98}},{"type":"Feature","id":230,"geometry":{"type":"Point","coordinates":[102.804807742001,16.3398635329225]},"properties":{"OBJECTID":230,"id":230,"code":2160,"name":"ท่าพระ","name_en":"Tha Phra","short_name_th":"พะ.","name_zh":"塔帕","short_name_en":"TAP","control_division":24,"exact_km":440,"exact_distance":439,"telegraph_km":439,"class":3}},{"type":"Feature","id":231,"geometry":{"type":"Point","coordinates":[102.81081472186,16.3755852916798]},"properties":{"OBJECTID":231,"id":231,"code":2161,"name":"กุดกว้าง","name_en":"Kut Kwang","short_name_th":"ดก.","name_zh":"库广","short_name_en":"KKW","control_division":24,"exact_km":444,"exact_distance":444,"telegraph_km":444,"class":98}},{"type":"Feature","id":232,"geometry":{"type":"Point","coordinates":[102.82557748579,16.4269450106048]},"properties":{"OBJECTID":232,"id":232,"code":2163,"name":"ขอนแก่น","name_en":"Khon Kaen","short_name_th":"ขอ.","name_zh":"孔敬府","short_name_en":"KHK","control_division":24,"exact_km":450,"exact_distance":449,"telegraph_km":449,"class":1}},{"type":"Feature","id":233,"geometry":{"type":"Point","coordinates":[102.842988268115,16.5172417389266]},"properties":{"OBJECTID":233,"id":233,"code":2166,"name":"สำราญ","name_en":"Samran","short_name_th":"าญ.","name_zh":"三廊","short_name_en":"SAR","control_division":24,"exact_km":461,"exact_distance":460,"telegraph_km":460,"class":4}},{"type":"Feature","id":234,"geometry":{"type":"Point","coordinates":[102.818602981104,16.6433738865887]},"properties":{"OBJECTID":234,"id":234,"code":2170,"name":"โนนพยอม","name_en":"Non Phayom","short_name_th":"พอ.","name_zh":"农帕勇","short_name_en":"NPY","control_division":24,"exact_km":475,"exact_distance":474,"telegraph_km":474,"class":4}},{"type":"Feature","id":235,"geometry":{"type":"Point","coordinates":[102.846060487207,16.6789023657249]},"properties":{"OBJECTID":235,"id":235,"code":2171,"name":"บ้านวังชัย","name_en":"Ban Wang Chai","short_name_th":"วช.","name_zh":"班旺猜","short_name_en":"BWC","control_division":24,"exact_km":480,"exact_distance":480,"telegraph_km":480,"class":98}},{"type":"Feature","id":236,"geometry":{"type":"Point","coordinates":[102.861275982817,16.7093983657155]},"properties":{"OBJECTID":236,"id":236,"code":2172,"name":"น้ำพอง","name_en":"Nam Phong","short_name_th":"อง.","name_zh":"南坡","short_name_en":"NPO","control_division":24,"exact_km":484,"exact_distance":484,"telegraph_km":484,"class":2}},{"type":"Feature","id":237,"geometry":{"type":"Point","coordinates":[102.874824384804,16.7474237755335]},"properties":{"OBJECTID":237,"id":237,"code":2174,"name":"ห้วยเสียว","name_en":"Huai Sieo","short_name_th":"ยว.","name_zh":"辉肖","short_name_en":"HUS","control_division":24,"exact_km":490,"exact_distance":489,"telegraph_km":489,"class":4}},{"type":"Feature","id":238,"geometry":{"type":"Point","coordinates":[102.876499212888,16.8499060054406]},"properties":{"OBJECTID":238,"id":238,"code":2177,"name":"เขาสวนกวาง","name_en":"Khao Suan Kwang","short_name_th":"สง.","name_zh":"考双广","short_name_en":"KSK","control_division":24,"exact_km":501,"exact_distance":500,"telegraph_km":500,"class":2}},{"type":"Feature","id":239,"geometry":{"type":"Point","coordinates":[102.897410833406,16.9672054595766]},"properties":{"OBJECTID":239,"id":239,"code":2181,"name":"โนนสะอาด","name_en":"Non Sa-at","short_name_th":"โอ.","name_zh":"暖沙阿","short_name_en":"NSA","control_division":24,"exact_km":514,"exact_distance":514,"telegraph_km":514,"class":2}},{"type":"Feature","id":240,"geometry":{"type":"Point","coordinates":[102.928025179178,17.0423938517791]},"properties":{"OBJECTID":240,"id":240,"code":2183,"name":"ห้วยเกิ้ง","name_en":"Huai Koeng","short_name_th":"ยก.","name_zh":"辉庚","short_name_en":"HKG","control_division":24,"exact_km":523,"exact_distance":523,"telegraph_km":523,"class":4}},{"type":"Feature","id":241,"geometry":{"type":"Point","coordinates":[102.948081620216,17.1223985813045]},"properties":{"OBJECTID":241,"id":241,"code":2186,"name":"กุมภวาปี","name_en":"Kumphawapi","short_name_th":"วป.","name_zh":"坤帕瓦比","short_name_en":"KWP","control_division":24,"exact_km":533,"exact_distance":532,"telegraph_km":532,"class":2}},{"type":"Feature","id":242,"geometry":{"type":"Point","coordinates":[102.938033381197,17.2094627612423]},"properties":{"OBJECTID":242,"id":242,"code":2188,"name":"ห้วยสามพาด","name_en":"Huai Sam Phat","short_name_th":"หพ.","name_zh":"辉三帕","short_name_en":"HSP","control_division":24,"exact_km":543,"exact_distance":542,"telegraph_km":542,"class":4}},{"type":"Feature","id":243,"geometry":{"type":"Point","coordinates":[102.894584020967,17.2671806181848]},"properties":{"OBJECTID":243,"id":243,"code":2190,"name":"หนองตะไก้","name_en":"Nong Takai","short_name_th":"งต.","name_zh":"农达盖","short_name_en":"NNT","control_division":24,"exact_km":551,"exact_distance":550,"telegraph_km":550,"class":4}},{"type":"Feature","id":244,"geometry":{"type":"Point","coordinates":[102.81337362183,17.3749492170073]},"properties":{"OBJECTID":244,"id":244,"code":2193,"name":"คำกลิ้ง","name_en":"Kham Kling","short_name_th":"ลค.","name_zh":"堪庚","short_name_en":"KKL","control_division":24,"exact_km":562,"exact_distance":562,"telegraph_km":562,"class":98}},{"type":"Feature","id":245,"geometry":{"type":"Point","coordinates":[102.813498748054,17.3747804037852]},"properties":{"OBJECTID":245,"id":245,"code":2194,"name":"หนองขอนกว้าง","name_en":"Nong Khon Kwang","short_name_th":"ออ.","name_zh":"农孔广","short_name_en":"NKK","control_division":24,"exact_km":565,"exact_distance":565,"telegraph_km":565,"class":3}},{"type":"Feature","id":246,"geometry":{"type":"Point","coordinates":[102.805692409792,17.4044151726226]},"properties":{"OBJECTID":246,"id":246,"code":2195,"name":"อุดรธานี","name_en":"Udon Thani","short_name_th":"รด.","name_zh":"烏隆府","short_name_en":"UTN","control_division":24,"exact_km":569,"exact_distance":568,"telegraph_km":568,"class":1}},{"type":"Feature","id":247,"geometry":{"type":"Point","coordinates":[102.794221328688,17.4611788782372]},"properties":{"OBJECTID":247,"id":247,"code":2197,"name":"หนองตูม","name_en":"Nong Tum","short_name_th":"ตู.","name_zh":"农吞","short_name_en":"NTU","control_division":24,"exact_km":576,"exact_distance":575,"telegraph_km":575,"class":98}},{"type":"Feature","id":248,"geometry":{"type":"Point","coordinates":[102.772800872638,17.6198975331541]},"properties":{"OBJECTID":248,"id":248,"code":2201,"name":"นาพู่","name_en":"Na Phu","short_name_th":"ภู.","name_zh":"那普","short_name_en":"NPU","control_division":24,"exact_km":593,"exact_distance":593,"telegraph_km":593,"class":3}},{"type":"Feature","id":249,"geometry":{"type":"Point","coordinates":[102.767832925057,17.653159741799]},"properties":{"OBJECTID":249,"id":249,"code":2202,"name":"คอกช้าง","name_en":"Khok Chang","short_name_th":"งช.","name_zh":"蔻昌","short_name_en":"KCA","control_division":24,"exact_km":598,"exact_distance":598,"telegraph_km":598,"class":99}},{"type":"Feature","id":250,"geometry":{"type":"Point","coordinates":[102.766742904711,17.6870979755387]},"properties":{"OBJECTID":250,"id":250,"code":2203,"name":"หนองบัวเงิน","name_en":"Nong Bua Ngoen","short_name_th":"เง.","name_zh":"农博音","short_name_en":"NBN","control_division":24,"exact_km":602,"exact_distance":602,"telegraph_km":602,"class":98}},{"type":"Feature","id":251,"geometry":{"type":"Point","coordinates":[102.748044071544,17.8423777997329]},"properties":{"OBJECTID":251,"id":251,"code":2207,"name":"นาทา","name_en":"Na Tha","short_name_th":"ยน.","name_zh":"那他","short_name_en":"NAA","control_division":24,"exact_km":618,"exact_distance":617,"telegraph_km":617,"class":3}},{"type":"Feature","id":252,"geometry":{"type":"Point","coordinates":[102.730839499352,17.8645078998218]},"properties":{"OBJECTID":252,"id":252,"code":2209,"name":"หนองคาย","name_en":"Nong Khai","short_name_th":"นค.","name_zh":"廊開府","short_name_en":"NKI","control_division":24,"exact_km":621,"exact_distance":621,"telegraph_km":621,"class":1}},{"type":"Feature","id":253,"geometry":{"type":"Point","coordinates":[102.192672918901,14.9857734066516]},"properties":{"OBJECTID":253,"id":253,"code":2211,"name":"บ้านพะเนา","name_en":"Ban Phanao","short_name_th":"พเ.","name_zh":"班帕挠","short_name_en":"BPN","control_division":23,"exact_km":276,"exact_distance":276,"telegraph_km":276,"class":4}},{"type":"Feature","id":254,"geometry":{"type":"Point","coordinates":[102.226172787576,14.9956773960358]},"properties":{"OBJECTID":254,"id":254,"code":2212,"name":"บ้านพระพุทธ","name_en":"Ban Phra Phut","short_name_th":"าท.","name_zh":"班帕普","short_name_en":"BPU","control_division":23,"exact_km":280,"exact_distance":280,"telegraph_km":280,"class":98}},{"type":"Feature","id":255,"geometry":{"type":"Point","coordinates":[102.27436731429,15.0018819403609]},"properties":{"OBJECTID":255,"id":255,"code":2213,"name":"ท่าช้าง","name_en":"Tha Chang","short_name_th":"ชา.","name_zh":"塔昌","short_name_en":"TCH","control_division":23,"exact_km":285,"exact_distance":285,"telegraph_km":285,"class":4}},{"type":"Feature","id":256,"geometry":{"type":"Point","coordinates":[102.349073961756,15.0135881097706]},"properties":{"OBJECTID":256,"id":256,"code":2215,"name":"หนองมโนรมย์","name_en":"Nong Manorom","short_name_th":"มโ.","name_zh":"农玛诺隆","short_name_en":"NOM","control_division":23,"exact_km":293,"exact_distance":293,"telegraph_km":293,"class":4}},{"type":"Feature","id":257,"geometry":{"type":"Point","coordinates":[102.410510517905,15.0127818786448]},"properties":{"OBJECTID":257,"id":257,"code":2217,"name":"จักราช","name_en":"Chakkarat","short_name_th":"จช.","name_zh":"乍卡拉","short_name_en":"CKR","control_division":23,"exact_km":300,"exact_distance":300,"telegraph_km":300,"class":2}},{"type":"Feature","id":258,"geometry":{"type":"Point","coordinates":[102.499097874646,15.003643213864]},"properties":{"OBJECTID":258,"id":258,"code":2220,"name":"บ้านหินโคน","name_en":"Ban Hin Khon","short_name_th":"หโ.","name_zh":"班欣孔","short_name_en":"BHK","control_division":23,"exact_km":310,"exact_distance":309,"telegraph_km":309,"class":4}},{"type":"Feature","id":259,"geometry":{"type":"Point","coordinates":[102.565675704612,15.0028688262944]},"properties":{"OBJECTID":259,"id":259,"code":2222,"name":"หินดาษ","name_en":"Hin Dat","short_name_th":"ดา.","name_zh":"欣丹","short_name_en":"HID","control_division":23,"exact_km":317,"exact_distance":316,"telegraph_km":316,"class":3}},{"type":"Feature","id":260,"geometry":{"type":"Point","coordinates":[102.646744493584,14.9993760685688]},"properties":{"OBJECTID":260,"id":260,"code":2224,"name":"ห้วยแถลง","name_en":"Huai Thalaeng","short_name_th":"ถล.","name_zh":"辉塔朗","short_name_en":"HTL","control_division":23,"exact_km":326,"exact_distance":325,"telegraph_km":325,"class":2}},{"type":"Feature","id":261,"geometry":{"type":"Point","coordinates":[102.755916697736,15.0059120522048]},"properties":{"OBJECTID":261,"id":261,"code":2227,"name":"หนองกะทิง","name_en":"Nong Kathing","short_name_th":"ทง.","name_zh":"农卡亭","short_name_en":"NKT","control_division":23,"exact_km":338,"exact_distance":337,"telegraph_km":337,"class":4}},{"type":"Feature","id":262,"geometry":{"type":"Point","coordinates":[102.829696377355,15.0244718958429]},"properties":{"OBJECTID":262,"id":262,"code":2229,"name":"ลำปลายมาศ","name_en":"Lam Plai Mat","short_name_th":"ลำ.","name_zh":"郎拜玛","short_name_en":"LPM","control_division":23,"exact_km":346,"exact_distance":345,"telegraph_km":345,"class":2}},{"type":"Feature","id":263,"geometry":{"type":"Point","coordinates":[102.913848937024,15.030558171866]},"properties":{"OBJECTID":263,"id":263,"code":2231,"name":"ทะเมนชัย","name_en":"Thamen Chai","short_name_th":"มช.","name_zh":"塔蒙猜","short_name_en":"TMC","control_division":23,"exact_km":355,"exact_distance":354,"telegraph_km":354,"class":3}},{"type":"Feature","id":264,"geometry":{"type":"Point","coordinates":[102.992051847325,15.0268093407869]},"properties":{"OBJECTID":264,"id":264,"code":2233,"name":"บ้านแสลงพัน","name_en":"Ban Salaeng Phan","short_name_th":"งพ.","name_zh":"班沙郎潘","short_name_en":"BSP","control_division":23,"exact_km":363,"exact_distance":363,"telegraph_km":363,"class":4}},{"type":"Feature","id":265,"geometry":{"type":"Point","coordinates":[103.021156318366,15.0208956107477]},"properties":{"OBJECTID":265,"id":265,"code":2234,"name":"บ้านหนองตาด","name_en":"Ban Nong Tat","short_name_th":"ตา.","name_zh":"班农丹","short_name_en":"BNT","control_division":23,"exact_km":367,"exact_distance":366,"telegraph_km":366,"class":4}},{"type":"Feature","id":266,"geometry":{"type":"Point","coordinates":[103.107785763214,15.0033363145875]},"properties":{"OBJECTID":266,"id":266,"code":2236,"name":"บุรีรัมย์","name_en":"Buri Ram","short_name_th":"รย.","name_zh":"武里南府","short_name_en":"BRR","control_division":23,"exact_km":376,"exact_distance":376,"telegraph_km":376,"class":1}},{"type":"Feature","id":267,"geometry":{"type":"Point","coordinates":[103.141143593565,14.9925480770835]},"properties":{"OBJECTID":267,"id":267,"code":2237,"name":"บ้านตะโก","name_en":"Ban Tako","short_name_th":"ตโ.","name_zh":"班打功","short_name_en":"BKO","control_division":23,"exact_km":380,"exact_distance":380,"telegraph_km":380,"class":98}},{"type":"Feature","id":268,"geometry":{"type":"Point","coordinates":[103.190032736373,14.9727751778098]},"properties":{"OBJECTID":268,"id":268,"code":2239,"name":"ห้วยราช","name_en":"Huai Rat","short_name_th":"หร.","name_zh":"辉拉","short_name_en":"HRA","control_division":23,"exact_km":386,"exact_distance":385,"telegraph_km":385,"class":2}},{"type":"Feature","id":269,"geometry":{"type":"Point","coordinates":[103.302695737642,14.9269555321187]},"properties":{"OBJECTID":269,"id":269,"code":2243,"name":"กระสัง","name_en":"Krasang","short_name_th":"ะส.","name_zh":"卡桑","short_name_en":"KSG","control_division":23,"exact_km":399,"exact_distance":398,"telegraph_km":398,"class":2}},{"type":"Feature","id":270,"geometry":{"type":"Point","coordinates":[103.363024821819,14.9087896098993]},"properties":{"OBJECTID":270,"id":270,"code":2244,"name":"หนองเต็ง","name_en":"Nong Teng","short_name_th":"เต.","name_zh":"农登","short_name_en":"NOE","control_division":23,"exact_km":406,"exact_distance":405,"telegraph_km":405,"class":4}},{"type":"Feature","id":271,"geometry":{"type":"Point","coordinates":[103.422801083196,14.8998094175251]},"properties":{"OBJECTID":271,"id":271,"code":2246,"name":"ลำชี","name_en":"Lam Chi","short_name_th":"ลช.","name_zh":"南琪","short_name_en":"LCH","control_division":23,"exact_km":412,"exact_distance":412,"telegraph_km":412,"class":3}},{"type":"Feature","id":272,"geometry":{"type":"Point","coordinates":[103.494001140613,14.8915910617124]},"properties":{"OBJECTID":272,"id":272,"code":2248,"name":"สุรินทร์","name_en":"Surin","short_name_th":"สร.","name_zh":"素輦府","short_name_en":"SUR","control_division":23,"exact_km":420,"exact_distance":419,"telegraph_km":419,"class":1}},{"type":"Feature","id":273,"geometry":{"type":"Point","coordinates":[103.576274041834,14.8900227217725]},"properties":{"OBJECTID":273,"id":273,"code":2250,"name":"บุฤาษี","name_en":"Bu Rusi","short_name_th":"บอุ.","name_zh":"布拉斯","short_name_en":"BRU","control_division":23,"exact_km":429,"exact_distance":428,"telegraph_km":428,"class":4}},{"type":"Feature","id":274,"geometry":{"type":"Point","coordinates":[103.655057685133,14.8937642267894]},"properties":{"OBJECTID":274,"id":274,"code":2252,"name":"เมืองที","name_en":"Muang Thi","short_name_th":"อท.","name_zh":"孟体","short_name_en":"MUT","control_division":23,"exact_km":437,"exact_distance":437,"telegraph_km":437,"class":4}},{"type":"Feature","id":275,"geometry":{"type":"Point","coordinates":[103.726924260681,14.9218780963695]},"properties":{"OBJECTID":275,"id":275,"code":2254,"name":"กะโดนค้อ","name_en":"Kadon Kho","short_name_th":"ดค.","name_zh":"卡东孔","short_name_en":"KDK","control_division":23,"exact_km":446,"exact_distance":445,"telegraph_km":445,"class":4}},{"type":"Feature","id":276,"geometry":{"type":"Point","coordinates":[103.786396742597,14.9451875167583]},"properties":{"OBJECTID":276,"id":276,"code":2256,"name":"ศีขรภูมิ","name_en":"Sikhoraphum","short_name_th":"รภ.","name_zh":"锡卡拉蓬","short_name_en":"SKP","control_division":23,"exact_km":452,"exact_distance":452,"telegraph_km":452,"class":2}},{"type":"Feature","id":277,"geometry":{"type":"Point","coordinates":[103.853175855959,14.9737153040326]},"properties":{"OBJECTID":277,"id":277,"code":2258,"name":"บ้านกะลัน","name_en":"Ban Kalan","short_name_th":"ลน.","name_zh":"班卡兰","short_name_en":"BKL","control_division":23,"exact_km":460,"exact_distance":460,"telegraph_km":460,"class":4}},{"type":"Feature","id":278,"geometry":{"type":"Point","coordinates":[103.940836188292,15.0207574221303]},"properties":{"OBJECTID":278,"id":278,"code":2261,"name":"สำโรงทาบ","name_en":"Samrong Thap","short_name_th":"สบ.","name_zh":"桑隆塔","short_name_en":"STP","control_division":23,"exact_km":471,"exact_distance":471,"telegraph_km":471,"class":2}},{"type":"Feature","id":279,"geometry":{"type":"Point","coordinates":[104.030141603876,15.0590055257732]},"properties":{"OBJECTID":279,"id":279,"code":2264,"name":"ห้วยทับทัน","name_en":"Huai Thap Than","short_name_th":"ทท.","name_zh":"辉塔潭","short_name_en":"HTT","control_division":23,"exact_km":482,"exact_distance":481,"telegraph_km":481,"class":2}},{"type":"Feature","id":280,"geometry":{"type":"Point","coordinates":[104.094310526051,15.0863836395878]},"properties":{"OBJECTID":280,"id":280,"code":2266,"name":"หนองแคน","name_en":"Nong Khaen","short_name_th":"หค.","name_zh":"农康","short_name_en":"NOH","control_division":23,"exact_km":489,"exact_distance":489,"telegraph_km":489,"class":98}},{"type":"Feature","id":281,"geometry":{"type":"Point","coordinates":[104.14041258133,15.1060404132478]},"properties":{"OBJECTID":281,"id":281,"code":2267,"name":"อุทุมพรพิสัย","name_en":"Uthumphon Phisai","short_name_th":"อุ .","name_zh":"乌统蓬披赛","short_name_en":"UTP","control_division":23,"exact_km":494,"exact_distance":494,"telegraph_km":494,"class":2}},{"type":"Feature","id":282,"geometry":{"type":"Point","coordinates":[104.173037411616,15.1198301846755]},"properties":{"OBJECTID":282,"id":282,"code":2268,"name":"บ้านแต้","name_en":"Ban Tae","short_name_th":"แต.","name_zh":"班特","short_name_en":"BTA","control_division":23,"exact_km":498,"exact_distance":498,"telegraph_km":498,"class":98}},{"type":"Feature","id":283,"geometry":{"type":"Point","coordinates":[104.224628420576,15.1259742267078]},"properties":{"OBJECTID":283,"id":283,"code":2270,"name":"บ้านเนียม","name_en":"Ban Niam","short_name_th":"บเ.","name_zh":"班娘","short_name_en":"BNI","control_division":23,"exact_km":504,"exact_distance":504,"telegraph_km":504,"class":4}},{"type":"Feature","id":284,"geometry":{"type":"Point","coordinates":[104.327311945647,15.1163475926257]},"properties":{"OBJECTID":284,"id":284,"code":2273,"name":"ศรีสะเกษ","name_en":"Si Sa Ket","short_name_th":"เก.","name_zh":"四色菊府","short_name_en":"SSK","control_division":23,"exact_km":515,"exact_distance":515,"telegraph_km":515,"class":1}},{"type":"Feature","id":285,"geometry":{"type":"Point","coordinates":[104.381957179923,15.106845415011]},"properties":{"OBJECTID":285,"id":285,"code":2275,"name":"เฉลิมกาญจนา","name_en":"Chalerm Kanchana","short_name_th":"ฉก.","name_zh":"查楞干乍那","short_name_en":"CKK","control_division":23,"exact_km":522,"exact_distance":522,"telegraph_km":522,"class":98}},{"type":"Feature","id":286,"geometry":{"type":"Point","coordinates":[104.439078448351,15.1069534978265]},"properties":{"OBJECTID":286,"id":286,"code":2277,"name":"หนองแวง","name_en":"Nong Waeng","short_name_th":"อว.","name_zh":"农翁","short_name_en":"NNW","control_division":23,"exact_km":527,"exact_distance":527,"telegraph_km":527,"class":4}},{"type":"Feature","id":287,"geometry":{"type":"Point","coordinates":[104.504241707349,15.1071466854978]},"properties":{"OBJECTID":287,"id":287,"code":2279,"name":"บ้านคล้อ","name_en":"Ban Khlo","short_name_th":"าค.","name_zh":"班可","short_name_en":"BNK","control_division":23,"exact_km":534,"exact_distance":534,"telegraph_km":534,"class":4}},{"type":"Feature","id":288,"geometry":{"type":"Point","coordinates":[104.578342039436,15.1072639981465]},"properties":{"OBJECTID":288,"id":288,"code":2281,"name":"กันทรารมย์","name_en":"Kanthararom","short_name_th":"าร.","name_zh":"干他拉隆","short_name_en":"KTR","control_division":23,"exact_km":542,"exact_distance":542,"telegraph_km":542,"class":2}},{"type":"Feature","id":289,"geometry":{"type":"Point","coordinates":[104.619775939849,15.1073151637373]},"properties":{"OBJECTID":289,"id":289,"code":2283,"name":"บ้านโนนผึ้ง","name_en":"Ban Non Phung","short_name_th":"นผ.","name_zh":"班农彭","short_name_en":"BNP","control_division":23,"exact_km":547,"exact_distance":546,"telegraph_km":546,"class":98}},{"type":"Feature","id":290,"geometry":{"type":"Point","coordinates":[104.688137738412,15.1097982981303]},"properties":{"OBJECTID":290,"id":290,"code":2285,"name":"ห้วยขยุง","name_en":"Huai Khayung","short_name_th":"ขย.","name_zh":"辉卡勇","short_name_en":"HKY","control_division":23,"exact_km":554,"exact_distance":553,"telegraph_km":553,"class":4}},{"type":"Feature","id":291,"geometry":{"type":"Point","coordinates":[104.72134707169,15.1183161578535]},